POSTED_BY,UNDER_CONSTRUCTION,RERA,BHK_NO.,BHK_OR_RK,SQUARE_FT,READY_TO_MOVE,RESALE,ADDRESS,LONGITUDE,LATITUDE,TARGET(PRICE_IN_LACS)
Owner,0,0,2,BHK,1300.236407,1,1,"Ksfc Layout,Bangalore",12.96991,4.351541138183826,4.007333185232471
Dealer,0,0,2,BHK,1275.0,1,1,"Vishweshwara Nagar,Mysore",12.274538,4.339179217974417,3.9318256327243257
Owner,0,0,2,BHK,933.1597222,1,1,"Jigani,Bangalore",12.778033,4.351982173644197,3.7612001156935624
Owner,0,1,2,BHK,929.9211427,1,1,"Sector-1 Vaishali,Ghaziabad",28.6423,4.3482694691257455,4.135166556742356
Owner,0,0,3,BHK,1250.0,1,1,"South Chittoor,Kochi",10.03328,4.334444484936118,3.7376696182833684
Dealer,0,0,3,BHK,1495.053957,1,1,"Sodala,Jaipur",26.916347,4.3280402434701015,4.197201947661808
Owner,0,1,3,BHK,1181.012946,1,1,"Kharar,Mohali",30.74,4.339249605317823,3.9512437185814275
Dealer,0,1,2,BHK,1040.0,1,1,"Bileshivale,Bangalore",13.054202,4.352520606789747,3.728100167267218
Owner,0,1,2,BHK,879.1208791000001,1,1,"Chromepet,Chennai",12.95161,4.383787208953065,3.58351893845611
Owner,0,0,3,BHK,1350.308642,1,1,"Deshbandhu Para,Siliguri",26.724219,4.481038556840746,3.5553480614894135
Dealer,0,0,2,BHK,1333.010179,1,1,"Hebbal,Bangalore",13.04034,4.351455913239765,4.700480365792417
Owner,0,0,2,BHK,927.1779023,1,1,"Garebhavipalya,Bangalore",12.96991,4.351541138183826,3.871201010907891
Owner,0,1,2,BHK,1122.1719460000004,1,1,"Sector-119 Noida,Noida",28.587711,4.349027128618898,4.127134385045092
Owner,0,0,1,BHK,649.9837504,1,1,"sanjay nagar,Raigad",13.0352,4.351273569584266,2.995732273553991
Dealer,1,1,3,BHK,1394.117647,0,1,"Sector-150 Noida,Noida",28.429614,4.350041921413191,4.264087336809195
Owner,0,0,3,BHK,1800.08471,1,1,"Jharapada,Bhubaneswar",20.275267000000003,4.45274609641232,4.442651256490317
Dealer,1,1,3,BHK,2124.896706,0,1,"Konanakunte,Bangalore",12.8855,4.351100823501241,5.19295685089021
Owner,0,0,2,BHK,1100.0,1,1,"Nagpur Road,Wardha",21.15389,4.370498692546197,3.091042453358316
Dealer,0,1,3,BHK,2178.649237,1,1,"Kogilu,Bangalore",13.092356,4.351740968830982,4.787491742782046
Owner,0,0,2,BHK,881.1435285,1,1,"Poonamallee,Chennai",13.05,4.383400690227026,3.8066624897703196
Dealer,0,0,2,BHK,944.8818898,1,1,"Undri,Pune",18.452663,4.303132766831081,3.7376696182833684
Dealer,0,1,3,BHK,1310.147689,1,1,"Sector-134 Noida,Noida",28.5041,4.348748470548351,4.007333185232471
Dealer,0,0,1,BHK,630.00063,1,1,"Bandra (West),Mumbai",19.05444,4.288272942913324,5.703782474656201
Dealer,0,0,2,BHK,1219.80971,1,1,"Narendra Nagar,Nagpur",21.105779,4.3704409920519955,3.912023005428146
Owner,0,0,2,BHK,780.141844,1,1,"Kudgat,Kolkata",22.54111,4.481167875673758,3.3141860046725258
Owner,0,0,3,BHK,1600.0,1,1,"Sain Vihar,Ghaziabad",28.63601,4.349422396295699,3.828641396489095
Dealer,0,0,2,BHK,1180.412371,1,1,"Sector-115 Mohali,Mohali",30.712867,4.339230779308912,3.131136910560194
Owner,1,0,2,BHK,1000.0,0,1,"Mohan Asram,Deoghar",24.48,4.462453883786496,3.6635616461296463
Dealer,0,0,2,BHK,1000.0,1,1,"Alwar Bypass Road,Bhiwadi",28.2102,4.3419933915074775,2.5257286443082556
Dealer,0,0,3,BHK,1400.107701,1,1,"Sector 84 Faridabad,Faridabad",28.40473,4.348566976728093,3.9512437185814275
Dealer,0,1,2,BHK,943.1266076,1,1,"Sector-134 Noida,Noida",28.5041,4.348748470548351,3.4965075614664802
Owner,0,0,2,BHK,1150.146382,1,1,"Indra Colony,Jaipur",26.586306,4.315796470180832,4.007333185232471
Dealer,1,1,1,BHK,864.0674393999999,0,1,"Thane West,Lalitpur",19.18,4.289956986171905,4.406719247264253
Dealer,0,1,2,BHK,857.7861968000002,1,0,"Mulund (West),Maharashtra",19.1759,4.2898044321562825,5.480638923341991
Owner,0,0,3,BHK,1174.210077,1,1,"Thalambur,Chennai",12.852171,4.384733293366175,4.007333185232471
Dealer,1,1,2,BHK,1020.087884,0,1,"Wakad,Pune",18.5993,4.300850472383287,4.174387269895637
Owner,0,0,4,BHK,1650.165017,1,1,"Vasna,Vadodara",22.312063,4.285987759435517,4.174387269895637
Dealer,1,0,2,BHK,1000.0,0,1,"Madhurawada,Visakhapatnam",17.815234,4.423146744753278,3.5553480614894135
Owner,0,0,3,BHK,1300.052002,1,1,"Vasanthapura,Bangalore",12.894088,4.350908885656021,4.31748811353631
Dealer,0,1,2,BHK,1058.114928,1,1,"Sus,Pune",18.539812,4.30051390329475,4.174387269895637
Dealer,1,0,1,BHK,400.0,0,1,"Kharadi,Pune",18.5438,4.303305345209278,3.4011973816621555
Dealer,0,1,3,BHK,1274.924779,1,1,"Marol,Mumbai",22.803593,4.427896025630252,5.521460917862246
Dealer,0,0,2,BHK,1026.694045,1,1,"Wadala East,Lalitpur",19.014858,4.288624882662238,5.393627546352362
Owner,0,0,2,BHK,1150.121065,1,1,"Near Ambamata Mandir,Vapi",20.366670000000006,4.289088639014612,3.6375861597263857
Owner,0,0,3,BHK,1200.0,1,1,"Patel Nagar-II,Ghaziabad",28.460928000000006,4.344316862474202,4.0943445622221
Dealer,0,0,1,RK,475.0103263,1,1,"Balkum,Lalitpur",24.69028,4.362064842211599,3.828641396489095
Builder,1,1,1,BHK,301.9171163000001,0,0,"Taloja,Lalitpur",24.69028,4.362064842211599,3.269568939183719
Dealer,1,1,2,BHK,1228.571429,0,1,"Bolar,Mangalore",12.843852,4.315422929176997,3.9435216724875173
Owner,0,0,2,BHK,986.0164934,1,1,"Ayanambakkam,Chennai",13.077175,4.383918007400288,4.007333185232471
Dealer,1,1,3,BHK,1972.565158,0,1,"Sector 88 Faridabad,Faridabad",28.431862,4.348354849703258,4.275276264727001
Dealer,1,1,1,BHK,420.6166888,0,1,"Sindhi Society Chembur,Lalitpur",19.048403,4.288914549787888,4.867534450455582
Dealer,1,1,1,BHK,406.024219,0,0,"Kalyan (West),Maharashtra",19.245347,4.292164520919905,3.686376323895818
Dealer,0,0,3,BHK,1862.562189,1,1,"Sector 88 Faridabad,Faridabad",28.431862,4.348354849703258,4.092676505121403
Owner,0,0,2,BHK,950.0146156,1,1,"Nandanwan Phases 2,Aurangabad",19.88879,4.322056860897659,4.174387269895637
Dealer,0,0,2,BHK,1049.969344,1,1,"Basaveshwara Nagar,Bangalore",12.985039,4.350843324884179,4.22683374526818
Dealer,0,0,3,BHK,1615.008157,1,1,"Maniktala,Kolkata",22.589694,4.481566006552072,4.59511985013459
Dealer,0,0,3,BHK,1150.0069,1,1,"Wadala East,Lalitpur",19.014858,4.288624882662238,5.521460917862246
Owner,0,0,2,BHK,1100.0,1,1,"Jhotwara,Jaipur",26.955346,4.327237671760756,3.3141860046725258
Dealer,1,1,2,BHK,906.2661833,0,0,"Balkum,Lalitpur",24.69028,4.362064842211599,4.248495242049359
Owner,0,0,3,BHK,1454.333915,1,1,"Poolakkaparambu,Ottapalam",10.77,4.3357208817973705,3.912023005428146
Owner,0,0,3,BHK,1591.994542,1,1,"Sector-137 Noida,Noida",28.506454,4.349110390526719,4.248495242049359
Dealer,0,1,2,BHK,573.8769151,1,1,"Sector 86 Faridabad,Faridabad",28.406388,4.348244748251822,3.095577608523707
Dealer,0,1,3,BHK,1038.883942,1,1,"Powai,Mumbai",19.12,4.289225803818339,5.634789603169249
Owner,0,0,3,BHK,1538.141758,1,1,"Yelahanka,Bangalore",13.11389,4.3515459063390445,4.30406509320417
Dealer,0,0,3,BHK,1602.084012,1,1,"Sector 77 Faridabad,Faridabad",28.368269,4.348634392933046,3.8958936234982624
Owner,0,0,2,BHK,1200.0,1,1,"Madhuranagar,Vijayawada",16.51667,4.389705451948824,3.8066624897703196
Owner,0,0,2,BHK,760.0709400000002,1,1,"Tilakwadi,Belgaum",15.86667,4.310799125385514,4.0943445622221
Owner,1,0,2,BHK,739.8273736000001,0,1,"tallaiya,Bhopal",23.25,4.349202132082888,3.4011973816621555
Owner,0,0,2,BHK,1260.02291,1,1,"Mulki,Mangalore",13.0915,4.314609307079841,3.4965075614664802
Owner,0,0,2,BHK,1100.151745,1,1,"Manewada,Nagpur",21.093676,4.370864127556833,3.367295829986474
Dealer,0,1,3,BHK,2293.077091,1,1,"Kharadi,Pune",18.5438,4.303305345209278,5.3471075307174685
Dealer,0,0,2,BHK,1146.480331,1,1,"Sector-8 Ulwe,Lalitpur",19.216097,4.288014276085156,4.484131857611035
Dealer,0,0,2,BHK,759.8784195000002,1,1,"Joka,Kolkata",22.452032,4.480728182283995,3.4011973816621555
Owner,0,0,4,BHK,2260.251857,1,1,"Wilson Garden,Bangalore",12.9506,4.351505569605929,4.941642422609304
Dealer,0,0,3,BHK,767.0182167,1,1,"DN Nagar,Maharashtra",20.742166,4.383333305607463,5.480638923341991
Owner,0,0,4,BHK,2500.0,1,1,"Ramprastha,Ghaziabad",28.66667,4.349202132082888,5.075173815233827
Dealer,1,1,4,BHK,2286.236854,0,1,"Gomti Nagar Extension,Lucknow",21.0,4.343805421853684,4.605170185988092
Owner,0,1,2,BHK,1150.086256,1,1,"Sector-74 Noida,Noida",28.577673,4.348854743455389,4.0943445622221
Dealer,0,1,2,BHK,1004.932182,1,1,"New Panvel,Mumbai",18.966114,4.292488586519191,4.400603020246817
Owner,0,0,2,BHK,800.0,1,1,"Prantik,Kolkata",22.56972,4.481529377028798,3.5263605246161616
Dealer,1,0,3,BHK,993.75,0,1,"Subhas Pally,Siliguri",26.706157,4.4823215065957696,3.459466289786131
Dealer,0,0,2,BHK,1298.139334,1,1,"Jatkhedi,Bhopal",23.169982,4.349992592426787,3.4011973816621555
Dealer,0,1,2,BHK,996.797438,1,1,"Raj Nagar Extension,Ghaziabad",26.900926,4.327780656455312,3.214867803470662
Owner,0,0,2,BHK,985.0194952,1,1,"CV Raman Nagar,Bangalore",12.98556,4.352390413185545,3.871201010907891
Dealer,0,0,3,BHK,1118.75,1,1,"Medavakkam,Chennai",12.91716,4.384434608177243,3.983413001514819
Dealer,0,1,2,BHK,889.8305085000002,1,1,"Sector-137 Noida,Noida",28.506454,4.349110390526719,3.7376696182833684
Dealer,1,1,3,BHK,2488.004265,0,1,"Sector-82 Mohali,Mohali",30.654128000000004,4.340324396081628,4.941642422609304
Dealer,0,0,3,BHK,1200.082764,1,1,"Satgachi,Kolkata",23.207157,4.481922545287706,4.060443010546419
Dealer,0,0,2,BHK,1584.283904,1,1,"Tilak Nagar,Kanpur",26.459137,4.375844087052375,4.605170185988092
Owner,0,0,2,BHK,900.0,1,1,"Kalol,Gandhinagar",23.2257,4.283818121255579,2.8903717578961645
Dealer,0,1,2,BHK,1193.440032,1,1,"Talegaon,Pune",18.441256,4.312775171719324,4.100989104940769
Owner,0,0,2,BHK,1487.357462,1,1,"Mansarovar Extension,Jaipur",26.8626,4.327614006535299,3.4011973816621555
Owner,1,1,2,BHK,989.9029895,0,1,"Sector-143 Noida,Noida",28.5035,4.349328414738552,3.912023005428146
Dealer,0,0,2,BHK,1155.020213,1,1,"Bhandup (West),Maharashtra",19.147866,4.289535850386158,4.941642422609304
Owner,0,0,2,BHK,949.893137,1,1,"Eswaran Koil Street,Pondicherry",11.93,4.379899373657707,4.382026634673881
Owner,0,0,2,BHK,875.0,1,1,"Sector-78 Noida,Noida",28.560719,4.348808573503271,3.8918202981106265
Dealer,0,0,2,BHK,853.3611982000001,1,1,"Ananth Nagar,Bangalore",12.96991,4.351541138183826,3.1986731175506815
Owner,0,0,1,BHK,483.0917874,1,1,"Roha,Raigad",18.4543,4.292029440930211,2.8903717578961645
Dealer,0,0,2,BHK,800.0,1,1,"Thane West,Maharashtra",19.18,4.289956986171905,4.553876891600541
Owner,0,0,2,BHK,802.0415602999999,1,1,"Ankur Vihar,Ghaziabad",28.66667,4.349202132082888,3.091042453358316
Dealer,0,1,2,BHK,610.0660905,1,1,"Koyambedu,Chennai",13.069866,4.384503851337497,3.871201010907891
Owner,0,0,3,BHK,1680.107527,1,1,"Naveen Nagar,Kanpur",28.861993,4.366358464966849,4.31748811353631
Owner,0,0,2,BHK,1150.136038,1,1,"Nirman Nagar,Jaipur",19.980678,4.373205795205094,4.532599493153256
Owner,0,0,3,BHK,1550.114497,1,1,"Sector-75 Noida,Noida",28.576117,4.348755952923432,4.477336814478207
Owner,0,0,5,BHK,1699.834163,1,1,"Sahibabad,Ghaziabad",28.6711,4.3485771359792675,4.406719247264253
Owner,1,0,3,BHK,1600.170685,0,1,"Tripunithura,Kochi",9.952439,4.335502168433846,4.31748811353631
Owner,0,0,1,BHK,600.0566091,1,1,"Pen,Raigad",18.75,4.291554731509806,3.054001181677967
Dealer,0,1,2,BHK,1429.200617,1,1,"Sector-66A Mohali,Mohali",30.661104,4.3405023363043345,4.1728476237100445
Owner,0,0,2,BHK,1115.1379980000004,1,1,"Dodda Banaswadi,Bangalore",13.008071,4.352228226854213,4.382026634673881
Owner,0,0,3,BHK,1811.196487,1,1,"Kanke,Ranchi",23.35556,4.446581405679423,4.59511985013459
Owner,0,0,2,BHK,1045.036079,1,1,"Narendrapur,Kolkata",22.43917,4.481824796585265,3.7376696182833684
Owner,0,0,3,BHK,1298.219585,1,1,"Electronics City Phase 1,Bangalore",12.840956,4.352333126234865,4.248495242049359
Owner,1,1,2,BHK,1109.165207,0,1,"Katapady,Udupi",13.278237,4.3141134658125,3.6375861597263857
Dealer,0,1,2,BHK,1041.195111,1,1,"Sector-70 Noida,Noida",28.59632,4.348746829329059,3.828641396489095
Dealer,0,0,3,BHK,2135.748916,1,1,"Sector 82 Faridabad,Faridabad",28.394375,4.348434005104439,4.4272389774954295
Owner,0,1,3,BHK,1850.180505,1,1,"Noida Extension,Noida",28.579004,4.349389451450874,4.406719247264253
Dealer,0,0,3,BHK,1665.080875,1,1,"Kudasan,Gandhinagar",23.166495,4.285437124375166,4.248495242049359
Owner,0,1,2,BHK,398.2621289,1,1,"Purseni,Lucknow",26.707154,4.394231180300467,2.3978952727983707
Owner,0,0,2,BHK,1005.025126,1,1,"Chandapura,Bangalore",12.80009,4.353007369356111,3.871201010907891
Dealer,0,1,2,BHK,1294.016156,1,1,"4 Bunglows,Mumbai",19.128324,4.288064905301483,5.799092654460526
Dealer,0,1,3,BHK,1536.806516,1,1,"Sector-3 Vaishali,Ghaziabad",28.6423,4.3482694691257455,4.605170185988092
Owner,0,0,2,BHK,1123.188406,1,1,"Kaggadasapura,Bangalore",12.9816,4.352506419187859,4.127134385045092
Dealer,0,0,2,BHK,800.1939864,1,1,"Jhotwara,Jaipur",26.955346,4.327237671760756,2.803360380906535
Dealer,0,0,3,BHK,1513.775356,1,1,"JP Nagar,Bangalore",12.905368,4.351314856636122,4.605170185988092
Owner,0,0,3,BHK,1280.0,1,1,"Ponekkara,Kochi",9.930471,4.334296366740936,3.871201010907891
Owner,0,0,1,BHK,410.0678733,1,1,"Sector-18 Vrindavan Colony,Lucknow",28.568846,4.348016878868482,2.6741486494265287
Dealer,0,0,2,BHK,890.0451868999999,1,1,"Sector-25 Khandeshhwar,Mumbai",28.582887,4.348210445734009,4.174387269895637
Owner,0,0,2,BHK,977.7082519,1,1,"Bicholi Mardana,Indore",22.1764,4.328352877653061,3.2188758248682006
Dealer,0,0,2,BHK,1099.855282,1,1,"Syndicate Bank Colony,Bangalore",12.977126,4.351280324123362,3.6375861597263857
Owner,1,0,2,BHK,1050.241272,0,1,"Paota,Jodhpur",26.29564,4.2909994323132175,3.6109179126442243
Dealer,0,1,3,BHK,1400.241838,1,1,"Raj Nagar Extension,Ghaziabad",26.900926,4.327780656455312,4.05871738457895
Dealer,0,0,3,BHK,1740.139211,1,1,"Sector 19 Kharghar,Mumbai",19.048979,4.291530538551587,5.19295685089021
Dealer,0,1,2,BHK,1149.131767,1,1,"Marol,Lalitpur",24.69028,4.362064842211599,5.19295685089021
Dealer,0,0,2,BHK,650.1950585,1,1,"Vadavalli,Coimbatore",11.026678,4.342552468404072,2.995732273553991
Owner,0,0,2,BHK,1355.01355,1,1,"Gopalpura Bypass,Jaipur",26.878068,4.32783250535112,4.442651256490317
Dealer,0,0,3,BHK,1800.0720030000002,1,1,"Rasanna Colony,Bangalore",12.96991,4.351541138183826,5.0106352940962555
Dealer,0,1,2,BHK,907.6305221,1,1,"Taloja,Maharashtra",21.56128,4.306930982617215,3.5234150143864045
Dealer,0,0,3,BHK,1636.296021,1,1,"Budigere,Bangalore",13.141581,4.353495412790753,4.477336814478207
Owner,0,0,2,BHK,900.2520706,1,1,"Tarsali,Vadodara",22.261354,4.293407597909698,3.2188758248682006
Owner,0,0,2,BHK,1318.0440230000004,1,1,"Doddakannelli,Bangalore",12.905538,4.35278141938381,4.605170185988092
Dealer,0,1,3,BHK,1949.586451,1,1,"Sector-88 Mohali,Mohali",30.684523,4.339793853795706,4.59511985013459
Dealer,0,0,3,BHK,1643.36522,1,1,"Kakkanad,Kochi",9.930471,4.334296366740936,4.204692619390966
Dealer,0,0,3,BHK,1233.045623,1,1,"Kanjur Marg (East),Maharashtra",18.96,4.287990642747287,5.3471075307174685
Dealer,0,0,1,BHK,655.0802139,1,1,"Sector 20 Ulwe,Maharashtra",18.964489,4.290727542192395,3.8918202981106265
Owner,0,0,2,BHK,1180.173092,1,1,"Ferrar Nagar,Bangalore",12.96991,4.351541138183826,4.31748811353631
Owner,0,0,3,BHK,1200.087279,1,1,"Sahibabad,Ghaziabad",28.6711,4.3485771359792675,4.007333185232471
Owner,0,0,2,BHK,850.0991782,1,1,"Ajmer Road,Jaipur",26.928785,4.3284676439547995,3.4011973816621555
Owner,0,0,2,BHK,900.0163639,1,1,"Roopena Agrahara,Bangalore",12.928575,4.351383402525714,4.007333185232471
Dealer,1,0,4,BHK,2472.952087,0,1,"NIBM,Pune",18.475864,4.302577622603228,5.075173815233827
Dealer,0,0,2,BHK,904.0656205,1,1,"Suraksha Nagar,Bangalore",20.098413,4.370812237725695,3.9259259105971376
Dealer,1,1,1,BHK,265.0033933,0,1,"Andheri (East),Lalitpur",19.1145,4.288693499228774,4.406719247264253
Dealer,1,1,3,BHK,1570.306924,0,1,"Tonk Road,Jaipur",26.16667,4.3278783476178635,4.700480365792417
Dealer,0,0,2,BHK,955.4140127,1,1,"Hiranandani Estate,Lalitpur",19.255098,4.290206347479055,5.0106352940962555
Dealer,0,0,2,BHK,1000.0,1,1,"Sector-53 Noida,Noida",28.593566,4.348505424452322,4.0943445622221
Dealer,0,0,4,BHK,2494.747899,1,1,"Kadugodi,Bangalore",12.995285,4.353714566311578,4.553876891600541
Owner,0,0,2,BHK,1150.130348,1,1,"Villivakkam Near ICF Bus Stand,Chennai",13.1101,4.384641961722701,4.31748811353631
Dealer,0,0,2,BHK,1210.136674,1,1,"Kamothe,Mumbai",19.0168,4.2917799387705315,4.442651256490317
Dealer,0,0,2,BHK,1365.001365,1,1,"Sector-11 Ghansoli,Mumbai",19.126499,4.290453413732966,5.298317366548036
Dealer,1,1,2,BHK,499.6366279,0,0,"Hiranandani Estate,Maharashtra",19.255098,4.290206347479055,4.700480365792417
Dealer,0,0,2,BHK,1050.144395,1,1,"Manjalpur,Vadodara",22.271214,4.293042772705091,3.6888794541139363
Owner,0,0,1,BHK,476.02046889999986,1,1,"Madanandapuram,Chennai",13.020957,4.383934488562697,3.6888794541139363
Dealer,0,0,2,BHK,985.452839,1,1,"Hajipur,Noida",28.538774,4.3485540642484475,3.044522437723423
Dealer,0,0,2,BHK,1045.296167,1,1,"Sector 77 Faridabad,Faridabad",28.368269,4.348634392933046,3.1780538303479458
Dealer,1,1,2,BHK,1301.89498,0,1,"Sarjapur Road,Bangalore",12.86,4.353961466405538,4.499809670330265
Owner,0,0,2,BHK,2000.0,1,1,"Alwar Bypass Road,Bhiwadi",28.2102,4.3419933915074775,3.6375861597263857
Dealer,0,0,2,BHK,1192.0,1,1,"Nayapalli,Bhubaneswar",20.286571,4.452146107973291,4.087655574071304
Dealer,1,0,1,BHK,448.5310608,0,1,"Kanjur Marg (East),Mumbai",19.221571,4.291041107564116,4.787491742782046
Owner,0,0,2,BHK,750.0604887000002,1,1,"Gyan Khand 2,Ghaziabad",28.66667,4.349202132082888,3.4339872044851463
Dealer,0,0,2,BHK,1060.0706710000004,1,1,"Roadpali,Maharashtra",19.040066,4.292038290000744,4.276666119016055
Dealer,0,1,3,BHK,1415.09434,1,1,"Electronic City Phase II,Bangalore",12.8458,4.352503844283903,4.375757021660286
Dealer,0,0,2,BHK,1160.062565,1,1,"Sector-35G Kharghar,Maharashtra",18.96,4.287990642747287,4.48863636973214
Dealer,0,0,3,BHK,1690.024732,1,1,"Goregaon (East),Lalitpur",19.1615,4.288719572289608,6.016157159698354
Owner,1,0,3,BHK,1672.762741,0,1,"Sector-143B Noida,Noida",28.495803,4.34933359383403,4.22829253473184
Owner,0,0,2,BHK,1315.265046,1,1,"RM Park,Valsad",20.606469,4.289273327034176,3.4965075614664802
Dealer,0,0,1,BHK,650.026001,1,1,"Kalyan (West),Mumbai",19.245347,4.292164520919905,3.912023005428146
Owner,0,0,1,BHK,540.1755571,1,1,"Saphale,Palghar",19.585537,4.288222255582398,2.772588722239781
Dealer,0,0,3,BHK,1830.065359,1,1,"Suraksha Nagar,Bangalore",20.098413,4.370812237725695,4.584967478670572
Dealer,0,0,3,BHK,1575.157516,1,1,"Judges Enclave,Ghaziabad",28.66667,4.349202132082888,4.248495242049359
Dealer,0,0,3,BHK,1530.0,1,1,"Harlur Road,Bangalore",12.904179,4.352416254977243,4.33729074083249
Owner,0,0,2,BHK,619.6377502,1,1,"Byagadadhenahalli,Bangalore",12.758604,4.3528601093566825,3.258096538021482
Owner,0,0,4,BHK,2200.0,1,1,"Citylight Area,Surat",21.17,4.288127958229824,4.700480365792417
Dealer,0,1,2,BHK,1087.885617,1,1,"Manpada,Mumbai",19.239813,4.28994865318418,4.941642422609304
Owner,0,0,2,BHK,1199.862873,1,1,"Doddakallasandra,Bangalore",12.880993,4.351021582366701,4.248495242049359
Owner,0,0,2,BHK,1265.035255,1,1,"Bhuvaneshwari Nagar,Bangalore",13.033421,4.35161837949933,4.110873864173311
Dealer,0,0,2,BHK,676.0453302,1,1,"Ganganagar,Kolkata",22.301625,4.480084706018237,2.8507065015037334
Owner,0,0,2,BHK,800.0,1,1,"Mohan Nagar,Ghaziabad",28.678014,4.348766601319244,3.7376696182833684
Owner,0,0,2,BHK,750.0750075,1,1,"Maheshtala,Kolkata",22.486821,4.479984068770179,3.2188758248682006
Dealer,0,1,2,BHK,1500.0,1,0,"Anna Nagar West,Chennai",13.086769,4.384412972603297,5.0106352940962555
Dealer,0,0,3,BHK,1814.285714,1,1,"Khandagiri,Bhubaneswar",20.257483,4.451787534484893,4.487512142519859
Dealer,0,1,3,BHK,1195.652174,1,1,"Ghodbunder Road,Lalitpur",24.69028,4.362064842211599,4.700480365792417
Dealer,0,0,3,BHK,1395.032324,1,1,"Raj Nagar Extension,Ghaziabad",26.900926,4.327780656455312,3.713572066704308
Owner,0,0,2,BHK,850.1594049,1,1,"Palghar,Palghar",19.696531,4.287272807576684,3.1780538303479458
Dealer,0,0,2,BHK,909.4339623,1,1,"Keelkattalai,Chennai",12.957707,4.384319890651192,3.8753590210565547
Owner,1,0,2,BHK,910.0937672,0,1,"Ramna,Varanasi",25.248438,4.419010665625103,3.4965075614664802
Dealer,0,0,3,BHK,1850.070303,1,1,"Aga Abbas Ali Road,Bangalore",12.96991,4.351541138183826,5.521460917862246
Dealer,0,1,3,BHK,2069.857697,1,1,"Sector-107 Noida,Noida",28.546788,4.348708886689589,5.075173815233827
Dealer,0,1,2,BHK,820.0082001000002,1,1,"Thane West,Mumbai",19.18,4.289956986171905,4.941642422609304
Dealer,0,0,2,BHK,1241.8075199999996,1,1,"Sargasan,Gandhinagar",23.182972,4.285123104911434,3.58351893845611
Dealer,0,1,3,BHK,1014.120668,1,0,"Kharadi,Maharashtra",18.5438,4.303305345209278,4.3694478524670215
Dealer,0,0,4,BHK,2302.158273,1,1,"Sector-70 Mohali,Mohali",30.697795000000006,4.340093632588218,5.075173815233827
Dealer,0,0,2,BHK,900.0782677000002,1,1,"Sector 35I Kharghar,Lalitpur",24.69028,4.362064842211599,4.23410650459726
Dealer,0,0,3,BHK,2235.294118,1,1,"C-Scheme,Jaipur",26.91667,4.328977457520796,5.247024072160486
Dealer,0,0,3,BHK,1350.0,1,1,"Sector-50 Noida,Noida",28.5679,4.348571965889786,4.394449154672439
Dealer,0,1,2,BHK,1100.110011,1,1,"Warje,Pune",18.485487,4.301409854960852,4.248495242049359
Dealer,0,1,1,BHK,612.1199755,1,1,"Mambakkam,Chennai",12.8356,4.384126927513917,3.4011973816621555
Owner,0,0,2,BHK,1100.352113,1,1,"Sai Nagar,Amravati",20.892133,4.353391329877274,3.2188758248682006
Dealer,0,0,3,BHK,1475.2567689999996,1,1,"Sector-137 Noida,Noida",28.506454,4.349110390526719,4.3694478524670215
Builder,1,0,1,BHK,300.0260892,0,0,"Kachimet,Lalitpur",24.69028,4.362064842211599,2.4423470353692043
Owner,0,0,2,BHK,1000.0,1,1,"Venkojipalem,Visakhapatnam",17.7,4.421848128860553,3.912023005428146
Dealer,0,0,2,BHK,1532.720245,1,1,"Goregaon (East),Mumbai",19.1615,4.288719572289608,5.438079308923196
Dealer,1,1,2,BHK,995.8314034,0,0,"Sevasi,Vadodara",22.311323,4.292119364083586,3.068052935133617
Dealer,0,0,3,BHK,1646.706587,1,0,"Sector-90 Gurgaon,Gurgaon",28.406794,4.342979717417219,4.700480365792417
Dealer,0,0,4,BHK,2350.965575,1,1,"Sunny Enclave,Mohali",30.664299,4.3414340929939765,4.02535169073515
Owner,0,0,3,BHK,534.061239,1,1,"Sector 55 Faridabad,Faridabad",28.34532,4.347681471686216,3.8066624897703196
Dealer,1,1,2,BHK,1100.0,0,1,"Majiwada,Mumbai",19.218498,4.290351407915751,4.700480365792417
Dealer,0,1,3,BHK,2196.354052,1,1,"Sector-110 Noida,Noida",28.536585,4.348775763501099,4.605170185988092
Dealer,0,0,2,BHK,1650.252861,1,1,"Hadapsar,Pune",18.49667,4.303276539133872,4.127134385045092
Dealer,1,1,2,BHK,632.0572844999998,0,0,"Vasai East,Mumbai",19.402549,4.288463175963661,3.8264651170664994
Owner,0,0,2,BHK,1034.965035,1,1,"Chinhat,Lucknow",26.882832,4.394865944346764,3.6109179126442243
Dealer,0,0,2,BHK,965.0439631,1,1,"kavesar,Maharashtra",18.96,4.287990642747287,4.499809670330265
Builder,1,1,2,BHK,600.5495224,0,0,"Sus,Lalitpur",24.69028,4.362064842211599,3.8264651170664994
Dealer,0,0,2,BHK,984.8484848,1,1,"Hiranandani Estate,Mumbai",19.255098,4.290206347479055,4.867534450455582
Dealer,0,1,1,BHK,546.0145603999998,1,0,"Thane West,Mumbai",19.18,4.289956986171905,4.069026754237811
Dealer,0,0,2,BHK,1195.499297,1,1,"Karamsad,Anand",22.55,4.289088639014612,2.833213344056216
Dealer,1,1,3,BHK,1677.4685470000004,0,1,"Thakur Village,Mumbai",18.914541,4.287966075018972,5.393627546352362
Dealer,0,1,3,BHK,1699.716714,1,1,"Crossing Republik,Ghaziabad",28.629811,4.349428504726637,3.871201010907891
Dealer,0,0,2,BHK,1075.027996,1,1,"sector-121 Noida,Noida",28.602325,4.349012542537741,3.871201010907891
Dealer,1,1,1,BHK,485.790072,0,0,"Balkum,Mumbai",19.222101,4.2902982089731,4.160444363926624
Owner,0,0,2,BHK,929.8998569,1,1,"Rajarajeshwari Nagar,Bangalore",12.919423,4.350571751255993,3.9512437185814275
Dealer,0,1,2,BHK,1020.181859,1,1,"Thanisandra,Bangalore",13.055985,4.351852914784227,3.828641396489095
Owner,0,0,2,BHK,1070.135002,1,1,"Vaishali,Ghaziabad",28.6423,4.3482694691257455,4.174387269895637
Owner,0,0,2,BHK,2400.384061,1,1,"Tiruchanur,Tirupati",13.603543,4.375258809522913,3.912023005428146
Owner,0,0,3,BHK,1767.388826,1,1,"Kompally,Secunderabad",17.546483,4.362847676105924,4.350277936359301
Builder,1,1,1,BHK,524.0,0,0,"Tathawade,Pune",18.6182,4.3006091282307795,3.265759410767051
Dealer,1,1,2,BHK,923.7875289,0,1,"Sector-63A Gurgaon,Gurgaon",28.359199,4.3416821693475764,4.787491742782046
Dealer,0,0,3,BHK,1657.275439,1,1,"Banashankari Stage VI,Bangalore",12.9223,4.350964152472063,4.605170185988092
Dealer,0,0,2,BHK,680.0,1,1,"Mulund (West),Lalitpur",19.1759,4.2898044321562825,5.135798437050262
Owner,0,0,2,BHK,1100.478469,1,1,"Gorwa,Vadodara",22.3301,4.2926638589481785,3.1354942159291497
Dealer,0,1,3,BHK,1701.6949149999996,1,0,"Bhatagaon,Raipur",21.152442,4.395561918037625,3.9160150266976834
Owner,0,0,1,BHK,451.0309278,1,1,"Shalimar Garden Extension II,Ghaziabad",28.689982,4.348208790701509,2.6390573296152584
Owner,0,0,2,BHK,1000.0,1,1,"Cantonment,Vizianagaram",18.116670000000006,4.423848169487259,3.4011973816621555
Dealer,0,0,3,BHK,1790.1897600000002,1,1,"Sector-81 Gurgaon,Gurgaon",28.388225,4.34310876365929,4.605170185988092
Owner,0,0,2,BHK,1100.352113,1,1,"Patuli GhoshPara,Kolkata",22.598675,4.482307530881625,3.2188758248682006
Dealer,0,1,2,BHK,1232.162459,1,1,"Sector 80 Faridabad,Faridabad",28.381971000000004,4.348310686462467,3.8044377947482086
Owner,0,0,3,BHK,1726.017442,1,1,"Kadugodi,Bangalore",12.995285,4.353714566311578,4.553876891600541
Dealer,1,1,3,BHK,1320.052802,0,1,"Kharadi,Pune",18.5438,4.303305345209278,4.700480365792417
Owner,0,0,2,BHK,990.0990099,1,1,"New Shanti Nagar,Raipur",21.250076,4.402573458026686,3.2188758248682006
Dealer,0,0,1,BHK,675.0441375,1,1,"Sector-35G Kharghar,Lalitpur",24.69028,4.362064842211599,4.174387269895637
Owner,0,0,2,BHK,674.0361283,1,1,"Punkunnam,Thrissur",10.5339,4.333473005027954,3.2188758248682006
Dealer,0,0,1,BHK,775.1114886,1,1,"Sector-99 Noida,Noida",28.543278000000004,4.348455580102153,3.597312260588446
Dealer,0,0,2,BHK,718.1042049,1,1,"Powai,Lalitpur",19.12,4.289225803818339,5.19295685089021
Owner,0,1,2,BHK,945.1795841,1,1,"Giduri,Satna",24.586021,4.391821062285662,3.4011973816621555
Dealer,0,1,2,BHK,1089.028042,1,1,"Laxmi Nagar,Maharashtra",20.07911,4.302870271580908,5.075173815233827
Dealer,0,1,2,BHK,942.1518749,1,1,"Mysore Road,Bangalore",12.96991,4.351541138183826,3.912023005428146
Dealer,0,0,2,BHK,1370.0,1,1,"Nirman Nagar,Jaipur",19.980678,4.373205795205094,4.409155302062135
Owner,0,0,2,BHK,1265.111049,1,1,"Andalpuram,Madurai",9.90708,4.358019710695333,4.499809670330265
Dealer,0,0,3,BHK,1394.31121,1,1,"Dhokali,Lalitpur",24.69028,4.362064842211599,4.605170185988092
Dealer,1,0,2,BHK,800.0,0,1,"Chandapura,Bangalore",12.80009,4.353007369356111,3.295836866004329
Dealer,1,1,3,BHK,1505.144771,0,1,"Zirakpur,Chandigarh",30.662283,4.341496225242729,4.141546163706395
Owner,0,0,3,BHK,1400.059577,1,1,"Kathreguppe,Bangalore",12.913771,4.353734163172012,4.543294782270004
Dealer,0,0,1,BHK,728.9473684,1,1,"Pratap Nagar,Jaipur",26.807408,4.328608175828413,3.3214324131932926
Dealer,0,1,3,BHK,1293.103448,1,0,"Raj Nagar Extension,Ghaziabad",26.900926,4.327780656455312,3.624340932976365
Dealer,0,1,2,BHK,1431.068385,1,1,"Sector-66A Mohali,Mohali",30.661104,4.3405023363043345,4.182050142641207
Owner,0,0,3,BHK,1350.063532,1,1,"BTM 1st Stage,Bangalore",12.96991,4.351541138183826,4.442651256490317
Owner,0,0,1,BHK,750.1630789,1,1,"Pal Gam,Surat",21.189685,4.288279834654275,3.1354942159291497
Dealer,0,1,3,BHK,1170.074459,1,1,"Ghodbunder Road,Lalitpur",24.69028,4.362064842211599,4.59511985013459
Owner,0,0,2,BHK,1121.076233,1,1,"Dixit Nagar,Lalitpur",24.69028,4.362064842211599,3.8066624897703196
Dealer,0,0,4,BHK,1904.761905,1,1,"Sector-44 Chandigarh,Chandigarh",30.714837,4.34057808974524,4.605170185988092
Dealer,0,0,2,BHK,950.0285009,1,1,"Malad (East),Maharashtra",19.1758,4.288598807132406,5.0106352940962555
Owner,0,0,2,BHK,969.9321048,1,1,"Mylasandra,Bangalore",12.852041,4.351777649936183,3.6888794541139363
Dealer,0,0,1,BHK,636.0078278,1,1,"Sector 35I Kharghar,Mumbai",19.038205,4.291364784625937,3.9512437185814275
Owner,0,0,1,BHK,700.0259269,1,1,"Wagholi,Pune",18.5823,4.303835337082524,3.295836866004329
Dealer,0,0,3,BHK,1859.637775,1,1,"Majiwada,Lalitpur",19.218498,4.290351407915751,5.438079308923196
Owner,0,0,3,BHK,1700.1866059999998,1,1,"ISBT Tutikandi,Shimla",31.097061,4.345815050547227,4.406719247264253
Dealer,0,0,3,BHK,1847.187238,1,0,"Sector-86 Gurgaon,Gurgaon",28.397468,4.343097236084392,4.700480365792417
Dealer,0,1,1,BHK,509.5541401,1,0,"Panvel,Maharashtra",18.966114,4.292488586519191,3.6888794541139363
Dealer,0,0,3,BHK,1427.424391,1,1,"Prince Anwar Shah Rd.,Kolkata",22.56972,4.481529377028798,5.075173815233827
Owner,0,0,2,BHK,715.0518413,1,1,"Jaisinghpura,Jaipur",26.532207,4.324404645752548,2.995732273553991
Owner,0,0,3,BHK,1393.214227,1,1,"Nehru Nagar,Bangalore",19.062322,4.288824598672061,4.442651256490317
Owner,0,0,2,BHK,900.3215434,1,1,"Sector-127 Mohali,Mohali",30.768683000000006,4.339261033823946,3.109060958860994
Dealer,0,0,2,BHK,1000.0,1,1,"Thane West,Mumbai",19.18,4.289956986171905,4.787491742782046
Owner,0,0,2,BHK,800.0,1,1,"City Center,Gwalior",26.209302,4.359197637285954,3.5553480614894135
Dealer,1,0,1,BHK,445.0304928000001,0,1,"Kasar vadavali,Maharashtra",20.084522,4.289092836536667,3.9889840465642745
Owner,0,0,2,BHK,1125.175809,1,1,"Bandepalya,Bangalore",12.96991,4.351541138183826,4.02535169073515
Dealer,0,0,2,BHK,1015.113918,1,1,"Mira Road,Maharashtra",19.283359,4.288607919921172,4.499809670330265
Owner,0,1,2,BHK,1200.4175369999996,1,1,"Katara Hills,Bhopal",23.185756,4.350258129711538,3.1354942159291497
Dealer,0,1,1,BHK,1060.147122,1,1,"Devanahalli,Bangalore",13.23,4.3528552573736015,3.8918202981106265
Owner,0,0,3,BHK,1654.8463359999996,1,1,"Kakkanad,Kochi",9.930471,4.334296366740936,4.248495242049359
Dealer,0,0,3,BHK,1175.121811,1,1,"Rajarhat,Kolkata",22.54111,4.481167875673758,3.713572066704308
Dealer,0,0,3,BHK,1877.435352,1,1,"Sama Savli Road,Vadodara",22.340396,4.293155256226247,3.970291913552122
Builder,1,1,2,BHK,1080.0,0,0,"KR Puram,Bangalore",13.010349,4.3530116286733564,3.4781584227982836
Dealer,0,1,3,BHK,1902.843071,1,1,"Binny Pete,Bangalore",12.96991,4.351541138183826,5.135798437050262
Owner,0,0,1,BHK,850.4606662,1,1,"Bicholi Mardana,Indore",22.1764,4.328352877653061,2.4849066497880004
Dealer,1,1,2,BHK,1051.223242,0,1,"Thane West,Lalitpur",19.18,4.289956986171905,4.700480365792417
Dealer,0,1,2,BHK,945.0617925,1,1,"Ghodbunder Road,Lalitpur",24.69028,4.362064842211599,4.51085950651685
Owner,1,0,2,BHK,570.0958797999998,0,1,"Ashoka Garden,Bhopal",23.259859,4.349345592184096,3.091042453358316
Dealer,0,0,2,BHK,1050.070432,1,1,"Sector 19 Ulwe,Maharashtra",19.049989,4.291518072381383,4.406719247264253
Dealer,0,1,2,BHK,1785.060417,1,1,"Andheri (East),Mumbai",19.1145,4.288693499228774,5.966146739123692
Owner,0,0,2,BHK,750.0551511,1,1,"Kengeri,Bangalore",12.919987,4.350139410636024,3.5263605246161616
Dealer,0,0,2,BHK,1129.908619,1,1,"Sector-16 Ulwe,Lalitpur",28.409274,4.347982309875569,4.516338972281476
Dealer,0,0,2,BHK,896.6801117000001,1,1,"Zirakpur,Chandigarh",30.662283,4.341496225242729,3.3638415951183864
Owner,0,0,2,BHK,900.116144,1,1,"Udaya Nagar,Bangalore",16.198332,4.348242188210083,3.4339872044851463
Owner,0,0,3,BHK,1870.32419,1,1,"Kundli,Sonipat",28.874383,4.345275133506002,4.31748811353631
Owner,0,0,2,BHK,1288.102262,1,1,"Hennur Road,Bangalore",13.0306,4.352192231958015,4.364371699435161
Dealer,1,1,4,BHK,2461.538462,0,1,"Vaishali Nagar,Jaipur",26.91868,4.3274437117023385,5.075173815233827
Dealer,0,0,2,BHK,1066.408143,1,1,"Bhayli,Vadodara",22.288976,4.292214366119801,3.091042453358316
Dealer,1,1,2,BHK,816.8491699,0,0,"Worli,Lalitpur",19.0167,4.287945324499887,5.91350300563827
Dealer,0,0,2,BHK,1261.625556,1,1,"Kundli,Sonipat",28.874383,4.345275133506002,3.4404180948154366
Owner,0,0,2,BHK,1160.092807,1,1,"Kodigehalli,Bangalore",13.0583,4.3512220067136465,3.8066624897703196
Dealer,1,1,2,BHK,828.7063893,0,1,"Kurar Village,Lalitpur",12.91668,4.351463813574045,4.605170185988092
Owner,0,1,3,BHK,2015.021066,1,1,"KR Puram,Bangalore",13.010349,4.3530116286733564,4.700480365792417
Dealer,0,0,2,BHK,790.0334245,1,1,"Phase 1 Kammasandra,Bangalore",12.863492,4.353388319903727,3.258096538021482
Builder,0,0,3,BHK,1358.024691,1,0,"Ekkaduthangal,Chennai",13.09,4.385395952143486,4.700480365792417
Owner,0,0,1,BHK,850.1594049,1,1,"Harinagar,Surat",21.800275,4.285033693570604,3.1780538303479458
Dealer,0,0,2,BHK,1115.075825,1,1,"Sector 21 Ulwe,Mumbai",18.973908,4.290803299830437,4.605170185988092
Dealer,0,0,1,BHK,406.3088686,1,1,"DN Nagar,Maharashtra",20.742166,4.383333305607463,4.700480365792417
Dealer,0,0,2,BHK,1080.080235,1,1,"Kasba,Kolkata",22.519728,4.481710531273759,4.248495242049359
Dealer,0,0,3,BHK,1150.0069,1,1,"Chembur,Maharashtra",19.05871,4.289084386605023,5.521460917862246
Owner,0,1,3,BHK,2489.4067800000007,1,1,"Doddanekundi,Bangalore",12.980033,4.352846608687553,4.543294782270004
Dealer,1,0,3,BHK,1894.179894,0,1,"Naini,Allahabad",25.3945,4.405028794864125,3.983413001514819
Dealer,0,1,2,BHK,1269.146608,1,1,"Bicholi Hapsi,Indore",22.727017,4.329865081880123,3.703768066607687
Builder,0,1,2,BHK,835.2668213,1,0,"Naya Raipur,Raipur",29.9055,4.320878360150297,3.2268439945173775
Owner,0,0,2,BHK,1185.146168,1,1,"Rajarhat,Kolkata",22.54111,4.481167875673758,4.499809670330265
Dealer,0,0,3,BHK,1289.872756,1,1,"Devanahalli,Bangalore",13.23,4.3528552573736015,4.30406509320417
Dealer,0,0,3,BHK,2100.0,1,1,"MG Road,Kochi",11.931023,4.379877101080977,5.3471075307174685
Builder,0,0,2,BHK,845.007783,1,1,"Kundrathur,Chennai",12.9974,4.383233406232093,3.6375861597263857
Dealer,0,0,1,BHK,850.0,1,1,"ZAGADE WASTI,Pune",21.0,4.343805421853684,3.3032169733019514
Dealer,1,1,2,BHK,923.0100988,0,1,"Ghodbunder Road,Lalitpur",24.69028,4.362064842211599,4.442651256490317
Owner,0,0,3,BHK,1490.312966,1,1,"Ramavarappadu,Vijayawada",16.531879,4.390378547648456,4.0943445622221
Owner,0,0,3,BHK,1480.019734,1,1,"Radha Vihar,Jaipur",26.222384,4.452742614090649,4.0943445622221
Owner,0,0,3,BHK,1510.159253,1,1,"Begur Road,Bangalore",12.8706,4.351926898654038,4.700480365792417
Dealer,1,1,1,BHK,453.01667930000013,0,1,"Kolshet Road,Lalitpur",24.69028,4.362064842211599,4.189654742026425
Dealer,0,0,2,BHK,999.6079969,1,0,"Dabhoi,Vadodara",22.12947,4.296163144065069,3.2386784521643803
Owner,0,0,2,BHK,1000.0,1,1,"Narendra Nagar,Nagpur",21.105779,4.3704409920519955,3.4011973816621555
Owner,0,0,3,BHK,1350.135014,1,1,"Electronics City Phase 1,Bangalore",12.840956,4.352333126234865,4.0943445622221
Dealer,0,0,3,BHK,1231.578947,1,1,"Kudlu,Bangalore",12.88784,4.352264748437179,3.845883202923601
Dealer,1,1,2,BHK,829.8850575,0,0,"Mangadu,Chennai",13.034709,4.383345564503411,3.586292865338835
Dealer,0,0,2,BHK,1069.7827519999996,1,1,"Crossing Republik,Ghaziabad",28.629811,4.349428504726637,3.481240089335692
Dealer,0,0,1,BHK,610.0273241,1,1,"Bhandup (West),Maharashtra",19.147866,4.289535850386158,4.564348191467836
Dealer,0,0,4,BHK,2030.205496,1,1,"Sector-91 Mohali,Mohali",30.698017,4.339628085544245,4.406719247264253
Dealer,0,0,2,BHK,978.7377658,1,1,"Sector 77 Faridabad,Faridabad",28.368269,4.348634392933046,3.367295829986474
Dealer,1,1,3,BHK,1503.225806,0,1,"Vaishali Nagar,Jaipur",26.91868,4.3274437117023385,3.8416005411316
Dealer,1,1,2,BHK,804.8649615,0,1,"Bannerghatta Road,Bangalore",12.808137,4.351349362177613,3.8066624897703196
Owner,0,0,3,BHK,1400.0518539999996,1,1,"Gopabandhu Nagar,Berhampur",20.277511,4.452140339459115,3.9889840465642745
Dealer,0,1,2,BHK,1251.091068,1,1,"Sarthana Jakatnaka,Surat",21.235342000000006,4.289332107316187,3.7612001156935624
Dealer,0,0,3,BHK,1850.424056,1,1,"Alwar Bypass Road,Bhiwadi",28.2102,4.3419933915074775,3.871201010907891
Owner,0,0,2,BHK,711.0877008,1,1,"Anekal,Bangalore",12.732961,4.352946102667892,3.295836866004329
Owner,0,0,1,BHK,540.0540053999998,1,1,"Shalimar Garden Extension I,Ghaziabad",28.689982,4.348208790701509,3.1780538303479458
Dealer,0,0,2,BHK,748.0,1,1,"Baguihati,Kolkata",22.617564,4.482188458017407,2.928523523860541
Dealer,0,0,2,BHK,1166.039111,1,1,"Yemlur,Bangalore",12.96991,4.351541138183826,4.564348191467836
Dealer,0,0,2,BHK,943.057302,1,1,"Powai,Mumbai",19.12,4.289225803818339,5.3471075307174685
Dealer,0,0,3,BHK,1700.071582,1,1,"Hazra Road,Kolkata",22.221142,4.480527933347168,5.247024072160486
Dealer,0,0,4,BHK,2175.202689,1,1,"Raj Nagar Extension,Ghaziabad",26.900926,4.327780656455312,4.700480365792417
Owner,1,0,3,BHK,2181.818182,0,1,"S T Bed colony koramangala,Bangalore",12.9259,4.351862486747604,5.480638923341991
Owner,0,0,3,BHK,1700.071582,1,1,"Sitapur National Highway,Lucknow",27.56667,4.390531986403815,4.553876891600541
Owner,0,0,3,BHK,1276.127613,1,1,"Hebbal,Bangalore",13.04034,4.351455913239765,4.060443010546419
Dealer,0,1,2,BHK,988.0395216,1,1,"Powai,Lalitpur",19.12,4.289225803818339,5.247024072160486
Dealer,0,0,3,BHK,935.0788138,1,1,"Tollygunge,Kolkata",22.5,4.481306198765705,3.5553480614894135
Dealer,0,0,1,BHK,550.0207555,1,1,"Sector-23 Juinagar,Mumbai",19.050992,4.290705260247469,3.970291913552122
Dealer,1,1,2,BHK,1094.8905109999996,0,1,"Sector-88 Mohali,Mohali",30.684523,4.339793853795706,3.9318256327243257
Dealer,0,1,2,BHK,1150.01465,1,1,"Keshav Nagar,Pune",27.16726,4.326903713987911,4.363098624788363
Owner,0,0,2,BHK,936.1348034,1,1,"Ramanathapuram,Coimbatore",10.999392,4.343769758880105,3.8066624897703196
Dealer,0,1,2,BHK,1150.030066,1,1,"Wakad,Pune",18.5993,4.300850472383287,4.33729074083249
Owner,1,0,2,BHK,1173.020528,0,1,"Telephone Nagar,Chennai",10.036626,4.350051872099024,4.430816798843313
Dealer,0,0,2,BHK,950.1648245,1,1,"Sector-51 Noida,Noida",28.535783,4.348993266362762,3.8918202981106265
Owner,0,0,2,BHK,1045.12276,1,1,"Suddaguntepalya,C V Raman Nagar,Bangalore",12.985206,4.352389241469148,4.143134726391533
Dealer,0,0,3,BHK,1969.667126,1,1,"Hinjewadi Phase 1,Pune",18.5853,4.300563022159686,4.605170185988092
Dealer,0,0,2,BHK,930.0661778,1,1,"Mhasoba Nagar,Pune",20.042481,4.310445170133294,3.9512437185814275
Dealer,0,0,2,BHK,1071.080818,1,1,"Dombivli (East),Lalitpur",19.2167,4.291599886483737,4.007333185232471
Dealer,1,1,3,BHK,1400.208986,0,1,"Sector-66b Mohali,Mohali",30.651192,4.340618674238294,4.204692619390966
Dealer,0,0,2,BHK,1176.470588,1,0,"Mahesh Nagar,Mumbai",30.387136,4.3289568290136815,5.298317366548036
Dealer,0,0,4,BHK,1925.925926,1,1,"Sector-49 Chandigarh,Chandigarh",30.692243,4.340561386435307,4.867534450455582
Owner,0,0,2,BHK,1053.001053,1,1,"G-303, Mahalaxmi 2, Pethapur Crossing, Gandhinagar,Gandhinagar",23.19635,4.28542141541784,3.4011973816621555
Owner,0,0,2,BHK,1051.1562720000004,1,1,"Lake City,Bangalore",12.96991,4.351541138183826,3.8066624897703196
Dealer,1,1,2,BHK,988.5365491,0,1,"Bavdhan,Pune",18.510418,4.301114040425369,4.1956970564823886
Dealer,0,0,2,BHK,1300.034211,1,1,"Selvapuram,Coimbatore",11.0,4.343372471001131,3.6375861597263857
Dealer,1,1,2,BHK,850.0028332999998,0,1,"Balkum,Lalitpur",24.69028,4.362064842211599,5.0106352940962555
Owner,0,0,2,BHK,948.6166008,1,1,"NH-24 Highway,Ghaziabad",28.66667,4.349202132082888,3.4404180948154366
Owner,0,0,3,BHK,1760.1987989999998,1,1,"Kakkanad,Kochi",9.930471,4.334296366740936,4.442651256490317
Owner,0,0,2,BHK,850.1259446,1,1,"Alwar Bhiwadi Road,Bhiwadi",28.21,4.34211568336104,3.295836866004329
Dealer,0,1,1,BHK,654.9646319,1,1,"Sector 19 Ulwe,Mumbai",19.049989,4.291518072381383,3.912023005428146
Dealer,0,0,2,BHK,1050.019091,1,1,"Dahisar (East),Lalitpur",19.256471,4.288660769713819,4.700480365792417
Owner,0,0,3,BHK,1267.05653,1,1,"Opposite Civil Hospital,Roorkee",31.325966,4.325107558366891,4.174387269895637
Dealer,0,0,3,BHK,1150.086256,1,1,"Shyam Nagar,Jaipur",26.809242,4.327325355486919,3.6888794541139363
Dealer,1,1,3,BHK,844.8442017000001,0,1,"Sector 86 Faridabad,Faridabad",28.406388,4.348244748251822,3.269568939183719
Dealer,0,1,2,BHK,1075.268817,1,1,"Sector 34 Kamothe,Lalitpur",28.583704,4.348475034688998,4.605170185988092
Dealer,0,0,2,BHK,1016.191315,1,1,"Chembur (East),Lalitpur",19.05871,4.289084386605023,5.0106352940962555
Dealer,1,1,3,BHK,900.3760394,0,0,"Goregaon (East),Lalitpur",19.1615,4.288719572289608,5.135798437050262
Dealer,0,1,3,BHK,2058.1113800000007,1,1,"Sector-107 Noida,Noida",28.546788,4.348708886689589,5.135798437050262
Dealer,0,0,2,BHK,950.1187648,1,1,"Ayyanthole,Thrissur",10.526103,4.333280488285653,3.58351893845611
Owner,0,0,3,BHK,2015.983872,1,1,"Rajaji Nagar,Bangalore",12.9847,4.350911284139344,5.634789603169249
Owner,0,0,2,BHK,749.4004796,1,1,"Amroli,Surat",21.23994,4.288492027606907,2.5257286443082556
Dealer,0,1,2,BHK,1303.707063,1,1,"Andheri (East),Lalitpur",19.1145,4.288693499228774,5.438079308923196
Dealer,0,1,2,BHK,936.0223873,1,1,"Kolshet Road,Lalitpur",24.69028,4.362064842211599,4.574710978503383
Dealer,0,0,2,BHK,1100.3757380000004,1,1,"Jagatpura,Jaipur",26.832353,4.3286489193897095,3.0204248861443626
Dealer,0,0,2,BHK,704.0070843,1,1,"Karayanchavadi,Chennai",13.04724,4.383418428179805,3.459466289786131
Dealer,0,0,3,BHK,2000.0,1,1,"Thevara,Kochi",9.935413,4.3346546943494175,4.867534450455582
Dealer,1,1,3,BHK,1678.6570739999993,0,1,"Sector - 22 Dharuhera,Dharuhera",28.595305,4.348306510504752,4.143134726391533
Dealer,0,1,1,BHK,411.1662322,1,0,"New Panvel,Mumbai",18.966114,4.292488586519191,3.8897773964808264
Owner,0,1,2,BHK,950.0285009,1,1,"Sector-75 Noida,Noida",28.576117,4.348755952923432,3.912023005428146
Owner,0,0,1,BHK,630.2521008,1,1,"Rudreshawar Chowk,Latur",18.4,4.3383794290421145,2.6026896854443837
Dealer,0,0,3,BHK,1823.154057,1,1,"Dobarwadi,Pune",18.52361,4.302005947591224,5.075173815233827
Owner,0,0,3,BHK,2250.692521,1,1,"Dera Bassi,Chandigarh",30.594843,4.341853257880662,4.174387269895637
Owner,0,0,3,BHK,1399.941055,1,1,"band garden road,Pune",18.531343,4.302411226319987,5.247024072160486
Owner,0,0,3,BHK,1635.055592,1,1,"Sinthan Nagar,Bangalore",12.96991,4.351541138183826,4.605170185988092
Dealer,0,1,3,BHK,1896.878772,1,1,"Sector-79 Gurgaon,Gurgaon",28.362327,4.343533293921146,4.700480365792417
Dealer,0,1,3,BHK,1600.0,1,1,"Bhandup (West),Mumbai",19.147866,4.289535850386158,5.521460917862246
Dealer,0,0,3,BHK,1447.054818,1,1,"New Alipore,Kolkata",22.53028,4.481127008971369,4.442651256490317
Owner,0,0,3,BHK,1640.112465,1,1,"Gulimangala,Bangalore",12.846186,4.352772293829262,4.248495242049359
Dealer,1,1,2,BHK,1110.053917,0,1,"Taloja,Lalitpur",24.69028,4.362064842211599,4.248495242049359
Owner,0,1,1,BHK,410.0461302,1,1,"Sushant Golf City,Lucknow",26.781748,4.394532040126234,2.772588722239781
Dealer,0,0,3,BHK,1512.401694,1,1,"Tulaja Bhawani Nagar,Pune",20.029201,4.301195005466907,4.605170185988092
Dealer,0,0,2,BHK,912.0620202,1,1,"Sector 8 Airoli,Mumbai",19.216097,4.288014276085156,4.787491742782046
Dealer,0,0,2,BHK,795.097423,1,1,"Shree Ananth Nagar Layout,Bangalore",21.19233,4.370233644917074,3.2308043957334744
Builder,1,1,1,BHK,443.5607219,0,0,"Pisoli,Maharashtra",18.440853,4.3027853557705,3.367295829986474
Dealer,0,0,3,BHK,1350.121359,1,1,"Ananth Nagar,Bangalore",12.96991,4.351541138183826,3.7954891891721947
Owner,0,0,3,BHK,1897.278651,1,1,"Akshayanagara East,Bangalore",12.96991,4.351541138183826,4.59511985013459
Dealer,0,0,1,BHK,705.0092764,1,1,"Sector 19 Kamothe,Lalitpur",19.049989,4.291518072381383,4.04305126783455
Dealer,1,1,3,BHK,1510.989011,0,1,"Sarjapur Road,Bangalore",12.86,4.353961466405538,4.700480365792417
Dealer,0,0,2,BHK,643.8113632999998,1,1,"Thane West,Mumbai",19.18,4.289956986171905,4.787491742782046
Owner,1,0,2,BHK,1100.208147,0,1,"Omkar Nagar,Nagpur",20.100361,4.370758474239626,3.6109179126442243
Dealer,0,0,1,BHK,650.0691562999998,1,1,"Sector 5 Ulwe,Maharashtra",19.148338,4.290400357211189,3.8501476017100584
Dealer,1,1,1,BHK,502.6315789,0,0,"New perungalathur,Chennai",12.9182,4.383056104587843,2.9496883350525844
Dealer,1,0,2,BHK,999.6895374,0,1,"Dombivli (East),Lalitpur",19.2167,4.291599886483737,4.165113633110308
Dealer,1,1,1,BHK,628.9308176,0,0,"Yelahanka,Bangalore",13.11389,4.3515459063390445,3.6109179126442243
Owner,0,0,3,BHK,1050.2283109999996,1,1,"Gopalpur,Durgapur",23.507414,4.4704484509012845,3.1354942159291497
Dealer,0,0,2,BHK,1225.186104,1,1,"Kaspate Vasti,Pune",18.52361,4.302005947591224,4.3694478524670215
Dealer,0,0,3,BHK,1473.005999,1,1,"Nager Bazar,Kolkata",22.54111,4.481167875673758,4.194189897191817
Owner,0,0,2,BHK,1250.0,1,1,"Umbergaon,Valsad",20.167837,4.287370291072073,3.1780538303479458
Owner,0,0,3,BHK,1614.797416,1,1,"Ladyhill,Mangalore",12.890308,4.315263601142245,4.007333185232471
Owner,0,0,1,BHK,533.0243337,1,1,"Paruthipet,Chennai",13.09,4.385395952143486,3.1354942159291497
Dealer,0,0,2,BHK,772.4137931,1,1,"Benachity,Durgapur",23.554673,4.469054932353689,3.109060958860994
Owner,0,0,2,BHK,900.116144,1,1,"Ganeshpeth Colony,Nagpur",21.15389,4.370498692546197,3.4339872044851463
Dealer,0,0,1,BHK,674.9662517,1,1,"Mira Road East,Lalitpur",19.2836,4.288642723422474,3.8066624897703196
Dealer,0,0,3,BHK,1773.0496449999996,1,1,"Ahinsa Khand 1,Ghaziabad",28.9196,4.342469464925427,4.787491742782046
Owner,0,0,3,BHK,1200.0,1,1,"Chitrakoot,Jaipur",26.91667,4.328977457520796,3.8066624897703196
Dealer,0,1,3,BHK,2015.503876,1,1,"Sushant Golf City,Lucknow",26.781748,4.394532040126234,4.356708826689592
Owner,0,0,2,BHK,1075.05864,1,1,"Sector-74 Noida,Noida",28.577673,4.348854743455389,4.007333185232471
Dealer,1,0,3,BHK,1190.322581,0,1,"Bankim Nagar,Siliguri",26.736714000000006,4.482411563855457,3.6082115510464816
Dealer,0,0,2,BHK,1199.944189,1,1,"Mdc Sector-4,Panchkula",30.689021,4.341990828422458,4.454347296253507
Dealer,0,0,3,BHK,1700.1545600000004,1,1,"Sector-25 Noida,Noida",28.582887,4.348210445734009,4.700480365792417
Owner,0,0,2,BHK,875.1608752000002,1,1,"laxmipet,Solapur",17.683329999999994,4.32963629137975,3.5263605246161616
Dealer,0,0,3,BHK,1518.151815,1,1,"Kanakpura Road,Bangalore",12.896796,4.351211693820468,4.5217885770490405
Dealer,0,0,1,BHK,739.9817851,1,1,"Baner,Pune",18.558319,4.301031848917809,4.174387269895637
Dealer,1,1,1,BHK,389.5585889,0,0,"Goregaon (West),Mumbai",19.161955,4.288259983016846,4.476199804691132
Owner,0,0,2,BHK,1350.154936,1,1,"Thrikkakara,Kochi",9.930471,4.334296366740936,4.110873864173311
Dealer,1,1,3,BHK,1679.966401,0,1,"Sector-150 Noida,Noida",28.429614,4.350041921413191,4.787491742782046
Dealer,0,1,2,BHK,1044.045677,1,1,"Mulund (West),Mumbai",19.1759,4.2898044321562825,5.075173815233827
Dealer,1,0,3,BHK,1350.024546,0,1,"Friends Colony,Nagpur",21.178534,4.377600051796125,4.007333185232471
Dealer,0,0,3,BHK,1954.686806,1,1,"Vaibhav Khand,Ghaziabad",28.9196,4.342469464925427,4.477336814478207
Dealer,0,0,2,BHK,1500.0,1,1,"Nizampura,Vadodara",22.328394,4.292876230687206,3.871201010907891
Dealer,0,0,2,BHK,1192.307692,1,1,"Shastri Nagar,Bhubaneswar",26.265915000000003,4.290522356977368,4.127134385045092
Owner,0,0,3,BHK,1000.0,1,1,"Lalghati,Bhopal",23.280294,4.348543930614118,3.6888794541139363
Dealer,0,1,3,BHK,1556.247221,1,0,"Bhayli,Vadodara",22.288976,4.292214366119801,3.5553480614894135
Dealer,1,1,2,BHK,514.9738552,0,0,"Kalina,Lalitpur",24.69028,4.362064842211599,4.867534450455582
Dealer,0,1,2,BHK,1072.194425,1,1,"Bhopura,Ghaziabad",28.698133,4.348156280787406,3.4011973816621555
Dealer,0,1,3,BHK,1626.898048,1,1,"Manpada,Lalitpur",24.69028,4.362064842211599,5.19295685089021
Owner,0,0,2,BHK,700.1647446000002,1,1,"Borsi,Durg",21.163131,4.3982302565479126,2.833213344056216
Dealer,0,0,3,BHK,1336.184773,1,1,"Korattur,Chennai",13.114624,4.384380350011403,4.35799005684564
Owner,0,0,1,BHK,535.0028458,1,1,"Bibwewadi Kondhwa Road,Pune",18.47954,4.302377575552253,3.8501476017100584
Dealer,0,1,2,BHK,882.0536017000002,1,1,"Dahisar (East),Mumbai",19.256471,4.288660769713819,4.356708826689592
Dealer,0,1,2,BHK,650.0397984,1,1,"Ravet,Pune",18.651598,4.300483660496476,3.8918202981106265
Dealer,1,1,3,BHK,1370.07874,0,1,"Sarjapur Road,Bangalore",12.86,4.353961466405538,4.465908118654584
Dealer,0,0,3,BHK,1930.235765,1,1,"8th Phase JP Nagar,Bangalore",12.905368,4.351314856636122,4.941642422609304
Dealer,1,0,2,BHK,730.8254481,0,0,"Chembur,Lalitpur",19.05871,4.289084386605023,5.247024072160486
Dealer,1,1,3,BHK,1000.0,0,1,"Majiwada,Maharashtra",19.218498,4.290351407915751,4.543294782270004
Owner,0,0,2,BHK,650.0956022999999,1,1,"Wakhari,Pune",18.439098,4.308810168856421,2.833213344056216
Dealer,0,0,3,BHK,2258.512856,1,1,"Hadapsar,Pune",18.49667,4.303276539133872,4.867534450455582
Dealer,0,0,3,BHK,2026.929202,1,1,"Mathura Road,Faridabad",28.41667,4.3476939555933765,4.941642422609304
Dealer,1,0,1,BHK,414.7619048,0,1,"Bander Pakhadi,Lalitpur",24.6902,4.362027988167192,4.467056883858457
Owner,0,0,3,BHK,1495.35923,1,1,"Sector 10,Sonipat",28.990399,4.344577098060972,3.7727609380946383
Dealer,0,0,2,BHK,800.0,1,1,"Kalwar Road,Jaipur",26.9883,4.325252558731366,2.5649493574615367
Dealer,0,0,2,BHK,940.8075265,1,1,"Sector-27 Nerul,Mumbai",28.574502000000006,4.348063977683033,4.787491742782046
Owner,0,0,2,BHK,1250.0,1,1,"Ahinsa Khand 2,Ghaziabad",28.9196,4.342469464925427,3.9512437185814275
Owner,1,0,2,BHK,1209.816799,0,1,"Swapna Theater,Vijayawada",16.498435999999998,4.3901647551583745,3.5553480614894135
Dealer,0,0,1,BHK,550.017188,1,1,"Bhagirathi Nagar,Mumbai",18.129209,4.340669653323689,3.4657359027997265
Dealer,0,0,2,BHK,1150.0,1,1,"Ajwa Road,Vadodara",22.3,4.293195420967266,3.1354942159291497
Dealer,0,0,2,BHK,1225.201072,1,1,"Kaggadasapura,Bangalore",12.9816,4.352506419187859,3.822098297900159
Dealer,1,0,1,BHK,408.997955,0,1,"Pokharan Road,Mumbai",18.96667,4.288173680100944,4.248495242049359
Dealer,1,1,1,BHK,498.8873735,0,1,"Ghodbunder Road,Lalitpur",24.69028,4.362064842211599,4.241326752570746
Owner,0,0,1,BHK,666.0088800999998,1,1,"Dindoli,Surat",21.142359,4.2885754209209805,2.6026896854443837
Dealer,0,0,2,BHK,1110.045224,1,1,"Kharghar,Lalitpur",24.69028,4.362064842211599,4.394449154672439
Owner,0,0,1,BHK,950.3239741,1,1,"Bhestan,Surat",21.12904,4.288514592251114,3.091042453358316
Owner,0,0,2,BHK,1349.325337,1,1,"Zirakpur,Mohali",30.65,4.341465022917759,3.8066624897703196
Dealer,1,1,2,BHK,530.2378905,0,0,"Tathawade,Pune",18.6182,4.3006091282307795,4.0163830207523885
Owner,0,0,2,BHK,1200.274348,1,1,"Udhana,Surat",21.1677,4.288240542857198,3.5553480614894135
Dealer,1,1,3,BHK,1599.680064,0,1,"Mulund (West),Mumbai",19.1759,4.2898044321562825,5.480638923341991
Dealer,0,0,2,BHK,1163.636364,1,1,"Marol,Mumbai",22.803593,4.427896025630252,5.075173815233827
Dealer,0,0,3,BHK,2241.010492000001,1,1,"Topsia,Kolkata",22.535636,4.48174087507823,5.393627546352362
Owner,0,1,2,BHK,942.0022165,1,1,"Mysore Road,Bangalore",12.96991,4.351541138183826,3.9318256327243257
Builder,1,1,1,BHK,301.9171163000001,0,0,"Taloja,Mumbai",19.076057,4.291791690296566,3.269568939183719
Dealer,0,0,2,BHK,900.090009,1,1,"Shakti Khand 2,Ghaziabad",28.9196,4.342469464925427,3.6888794541139363
Dealer,0,0,2,BHK,852.9776675,1,1,"Dahisar (East),Mumbai",19.256471,4.288660769713819,4.700480365792417
Dealer,0,0,3,BHK,2106.897316,1,1,"Ahinsa Khand 1,Ghaziabad",28.9196,4.342469464925427,5.247024072160486
Dealer,0,0,2,BHK,1600.134748,1,1,"Akshaya Nagar,Bangalore",12.96991,4.351541138183826,4.553876891600541
Dealer,0,0,3,BHK,1326.963907,1,1,"Chuchangatta Colony,Bangalore",12.96991,4.351541138183826,4.31748811353631
Dealer,0,1,3,BHK,1505.011565,1,1,"Sarjapur Road,Bangalore",12.86,4.353961466405538,4.580877493419047
Dealer,0,1,2,BHK,1296.111665,1,1,"Thanisandra,Bangalore",13.055985,4.351852914784227,4.356708826689592
Dealer,0,0,1,BHK,661.9632436,1,1,"Ghansoli,Maharashtra",19.126499,4.290453413732966,4.330733340286331
Dealer,0,0,2,BHK,1299.89295,1,1,"Wanowrie,Pune",18.52361,4.302005947591224,4.442651256490317
Owner,0,1,3,BHK,1300.131062,1,1,"Noida Extension,Noida",28.579004,4.349389451450874,3.903990833730882
Dealer,0,0,2,BHK,1165.13904,1,1,"Whitefield,Bangalore",12.9958935,4.35364508694623,4.31748811353631
Dealer,0,1,2,BHK,1135.241856,1,1,"Bileshivale,Bangalore",13.054202,4.352520606789747,3.828641396489095
Dealer,0,0,3,BHK,1645.141451,1,1,"Adityapur,Jamshedpur",22.7808,4.456115499502203,3.979681653901961
Dealer,0,0,4,BHK,2141.46658,1,1,"Sector 77 Faridabad,Faridabad",28.368269,4.348634392933046,4.189654742026425
Dealer,1,1,3,BHK,1777.975331,0,0,"Sector-22 Gurgaon,Gurgaon",28.510034,4.344650259682878,5.075173815233827
Dealer,0,1,2,BHK,947.6389335,1,1,"Raj Nagar Extension,Ghaziabad",26.900926,4.327780656455312,3.3843902633457743
Owner,0,0,3,BHK,1100.196464,1,1,"Sirsi Road,Jaipur",27.073397,4.325381095173754,3.332204510175204
Dealer,0,0,2,BHK,797.0849465,1,1,"Kattupakkam,Chennai",13.042089,4.383578729551219,3.5553480614894135
Owner,0,0,2,BHK,823.0452675,1,1,"K K Pudur,Coimbatore",11.169483,4.338805945271422,3.5263605246161616
Owner,0,0,2,BHK,630.1502666,1,1,"Pawanpuri,Jaipur",26.91667,4.328977457520796,2.5649493574615367
Owner,0,0,3,BHK,1300.284437,1,1,"merawal,Hazaribagh",24.03687,4.447090798886922,3.4657359027997265
Dealer,0,0,3,BHK,1785.469029,1,1,"Sector-82A Gurgaon,Gurgaon",28.385415,4.343345744789797,4.867534450455582
Dealer,0,0,3,BHK,1724.1379309999998,1,1,"NH-8,Dharuhera",12.973237,4.35217109803604,3.5263605246161616
Dealer,0,0,3,BHK,1699.346405,1,1,"Gotri Road,Vadodara",22.312358,4.292449733175152,3.258096538021482
Owner,0,0,2,BHK,1270.417423,1,1,"Adarsh Nagar,Jabalpur",26.906098,4.328431403387696,3.5553480614894135
Owner,0,1,1,BHK,675.0392465,1,1,"Chanakya Nagar,Lalitpur",25.415663,4.456030425508061,3.7612001156935624
Dealer,0,1,3,BHK,1625.282167,1,1,"Sector-74 Noida,Noida",28.577673,4.348854743455389,4.276666119016055
Owner,0,0,3,BHK,1655.878368,1,1,"Yadavagiri,Mysore",12.326657,4.3390925805960885,4.700480365792417
Owner,0,0,3,BHK,1650.252861,1,1,"Tadepalli,Vijayawada",16.609758,4.389719195910041,4.127134385045092
Dealer,0,0,1,BHK,650.1011268,1,1,"Ambernath West,Lalitpur",24.6902,4.362027988167192,3.1135153092103742
Owner,0,0,4,BHK,1750.051472,1,1,"Sector-62 Noida,Noida",28.6221,4.348565503240345,4.442651256490317
Owner,1,0,3,BHK,1400.0,0,1,"Pothinamallayya Palem,Visakhapatnam",17.80268,4.423122223763729,3.9473901492654373
Dealer,0,1,3,BHK,1877.410189,1,1,"4 Bunglows,Maharashtra",19.128324,4.288064905301483,5.91350300563827
Dealer,0,1,2,BHK,1150.190114,1,1,"Sector-143 Noida,Noida",28.5035,4.349328414738552,3.879499813722586
Dealer,1,1,3,BHK,1767.3521850000004,0,1,"Bellandur,Bangalore",12.9255,4.352552766325352,4.700480365792417
Dealer,0,1,2,BHK,800.1361933999998,1,1,"Sector 86 Faridabad,Faridabad",28.406388,4.348244748251822,3.1570004211501135
Owner,0,0,1,BHK,609.0764331,1,1,"Bariatu,Ranchi",23.399528,4.446847393322449,2.72785282839839
Owner,0,0,2,BHK,2000.0,1,1,"Roha,Raigad",18.4543,4.292029440930211,4.0943445622221
Dealer,0,0,3,BHK,1250.0,1,1,"Roopena Agrahara,Bangalore",12.928575,4.351383402525714,3.8066624897703196
Dealer,0,0,2,BHK,954.7934528,1,1,"Mansarovar Extension,Jaipur",26.8626,4.327614006535299,3.1986731175506815
Dealer,1,1,1,BHK,453.0011325,0,0,"Kolshet Road,Maharashtra",19.249861,4.289964332300862,4.1588830833596715
Dealer,0,0,2,BHK,550.0442,1,1,"Thane West,Lalitpur",19.18,4.289956986171905,4.02535169073515
Dealer,0,1,3,BHK,2501.924557,1,1,"Sector-102 Gurgaon,Gurgaon",28.479440000000004,4.3434343400243245,4.867534450455582
Owner,0,0,2,BHK,1159.243441,1,1,"Hanspal,Bhubaneswar",20.26444,4.452345992655154,3.6375861597263857
Owner,0,0,2,BHK,940.2914904,1,1,"Avalapalli Hudco,Hosur",12.756152,4.354863175805413,2.995732273553991
Dealer,0,1,3,BHK,1750.087504,1,1,"Malad (East),Lalitpur",19.1758,4.288598807132406,5.298317366548036
Dealer,0,0,3,BHK,1474.993653,1,1,"Nipania,Indore",22.760061,4.3297930562525595,4.062165663857866
Owner,0,0,2,BHK,800.0,1,1,"Sahibabad,Ghaziabad",28.6711,4.3485771359792675,3.2188758248682006
Dealer,0,1,3,BHK,1678.947368,1,1,"Vaishali Nagar,Jaipur",26.91868,4.3274437117023385,4.155753190350744
Dealer,0,0,1,BHK,675.024108,1,1,"Karanjade,Mumbai",18.975268,4.291952326240701,3.7376696182833684
Dealer,0,0,2,BHK,1302.241066,1,1,"Palanpur,Surat",21.17,4.288127958229824,3.7612001156935624
Owner,0,0,2,BHK,1166.180758,1,1,"Vidyaranyapura,Bangalore",13.0814,4.351007992384184,4.0943445622221
Owner,0,0,3,BHK,1399.825022,1,1,"Mohba Bazar,Raipur",21.2612,4.401658561126991,3.871201010907891
Dealer,0,1,2,BHK,1176.683563,1,1,"Rajaji Nagar,Bangalore",12.9847,4.350911284139344,4.867534450455582
Owner,0,0,3,BHK,1609.834626,1,1,"Gokulpeth,Nagpur",21.15389,4.370498692546197,4.700480365792417
Owner,0,0,1,BHK,675.1687922,1,1,"RATA ROAD CHIRI,Vapi",20.366670000000006,4.289088639014612,2.1972245773362196
Dealer,1,1,3,BHK,1950.078003,0,1,"Andheri (West),Mumbai",19.139348,4.28799693220842,5.857933154483459
Dealer,1,0,3,BHK,1650.0,0,1,"Pradeep Nagar,Vizianagaram",18.092898,4.423597876438306,3.966511190712216
Dealer,0,0,2,BHK,1223.380154,1,1,"NH-8,Dharuhera",12.973237,4.35217109803604,3.295836866004329
Dealer,0,1,2,BHK,1250.0,1,1,"Raj Nagar Extension,Ghaziabad",26.900926,4.327780656455312,3.713572066704308
Dealer,1,0,3,BHK,1183.522902,0,1,"Adityapur,Jamshedpur",22.7808,4.456115499502203,3.6506582412937387
Dealer,0,0,3,BHK,1960.01568,1,1,"Zirakpur,Chandigarh",30.662283,4.341496225242729,3.912023005428146
Dealer,0,0,2,BHK,980.3921569,1,1,"Sundarpada,Bhubaneswar",20.230195,4.45220552755932,3.1570004211501135
Dealer,0,0,2,BHK,1195.652174,1,1,"Sector 42 Seawoods,Mumbai",28.456809000000003,4.345092670915077,4.700480365792417
Owner,0,0,2,BHK,900.2976189999998,1,1,"Jambuva,Vadodara",22.216168,4.292997286585847,3.186352633162641
Owner,0,0,3,BHK,1328.273245,1,1,"Jahangirabad,Surat",21.17,4.288127958229824,3.7376696182833684
Dealer,0,1,2,BHK,1125.112511,1,1,"Ghodbunder Road,Lalitpur",24.69028,4.362064842211599,4.605170185988092
Dealer,0,0,2,BHK,830.2364197,1,1,"Wadala East,Mumbai",19.014858,4.288624882662238,5.3471075307174685
Owner,0,0,2,BHK,1554.118018,1,1,"Ganapathy,Coimbatore",11.060813,4.3434240634315175,4.590056548178043
Owner,0,0,1,BHK,449.7354497,1,1,"ausa,Latur",18.25,4.33729074083249,2.322387720290225
Dealer,0,0,3,BHK,1800.288046,1,1,"Bani Park,Jaipur",26.930121000000003,4.327976425064462,4.31748811353631
Dealer,1,0,2,BHK,958.9041096,0,1,"Goregaon (East),Maharashtra",19.1615,4.288719572289608,4.941642422609304
Dealer,0,0,2,BHK,1350.0135,1,1,"Ashok Nagar,Pune",18.540684,4.301828092983856,5.0106352940962555
Owner,0,0,2,BHK,949.9136442,1,1,"Deshpande Nagar,Hubli",15.355645,4.319325877147154,3.091042453358316
Dealer,0,1,3,BHK,1040.041602,1,1,"Thane West,Mumbai",19.18,4.289956986171905,5.19295685089021
Dealer,0,1,3,BHK,1449.781659,1,1,"Hinjewadi,Pune",18.5853,4.300563022159686,4.418840607796598
Dealer,1,1,2,BHK,1350.135014,0,1,"Sector-128 Noida,Noida",28.522931,4.348432078973562,4.0943445622221
Dealer,0,1,3,BHK,1579.809004,1,1,"Zirakpur,Chandigarh",30.662283,4.341496225242729,4.05871738457895
Dealer,0,0,3,BHK,1489.489489,1,1,"Alwar Bypass Road,Bhiwadi",28.2102,4.3419933915074775,3.2108436531709366
Owner,0,0,2,BHK,750.0610799,1,1,"Naktala,Kolkata",22.54111,4.481167875673758,3.4242626545931514
Dealer,0,0,3,BHK,1419.656786,1,1,"Jagatpura,Jaipur",26.832353,4.3286489193897095,3.817712325956905
Owner,0,0,2,BHK,750.0,1,1,"Shanshah Garden,Bhopal",23.25,4.349202132082888,2.8903717578961645
Dealer,0,1,2,BHK,883.4442547,1,0,"Wadala,Lalitpur",24.69028,4.362064842211599,5.703782474656201
Dealer,1,1,2,BHK,910.8108108,0,1,"Chikhali,Pune",19.085225,4.299484822463347,3.517497837358316
Dealer,0,0,3,BHK,1559.004948,1,1,"Sector 11 Koparkhairane,Maharashtra",19.095064,4.290569065276433,5.438079308923196
Dealer,0,1,3,BHK,1553.139561,1,1,"Ahinsa Khand 1,Ghaziabad",28.9196,4.342469464925427,4.248495242049359
Dealer,1,1,2,BHK,1207.200847,0,1,"Bavdhan,Pune",18.510418,4.301114040425369,4.225372824628505
Owner,0,0,3,BHK,1400.0,1,1,"Indirapuram,Ghaziabad",28.63676,4.3485105690337384,4.248495242049359
Dealer,0,0,3,BHK,1347.708895,1,1,"Sector V - Salt Lake,Kolkata",22.54111,4.481167875673758,4.605170185988092
Dealer,1,1,1,BHK,716.0268129,0,1,"Malad (West),Mumbai",19.1849,4.2881924899935475,4.543294782270004
Owner,0,0,3,BHK,1420.051122,1,1,"Ramnagariya,Jaipur",26.91667,4.328977457520796,3.912023005428146
Dealer,0,0,2,BHK,970.042796,1,1,"Sector 20 Kamothe,Lalitpur",28.5822,4.348072926465658,4.219507705176107
Owner,0,0,2,BHK,900.090009,1,1,"Sector-6 Karnal,Karnal",29.676163,4.3439100917002795,3.4011973816621555
Owner,0,0,2,BHK,1264.450867,1,1,"Kundli,Sonipat",28.874383,4.345275133506002,3.5553480614894135
Dealer,0,1,3,BHK,1850.124378,1,1,"Sas Nagar,Mohali",30.682453,4.340644066394845,4.085976312551584
Dealer,0,0,2,BHK,1070.079731,1,1,"Malleshpalya,Bangalore",12.976741,4.3525271340489615,3.9318256327243257
Owner,0,0,2,BHK,840.1344215,1,1,"Naskarhat,Kolkata",22.54111,4.481167875673758,3.5553480614894135
Dealer,0,1,3,BHK,2280.068402,1,1,"Sector-79 Noida,Noida",28.558047,4.34889313280001,4.787491742782046
Dealer,0,1,3,BHK,1671.6817119999996,1,1,"Ahinsa Khand 1,Ghaziabad",28.9196,4.342469464925427,4.605170185988092
Dealer,1,1,2,BHK,722.0216606,0,1,"Andheri (East),Lalitpur",19.1145,4.288693499228774,5.19295685089021
Dealer,1,0,2,BHK,1300.027858,0,1,"Senapati Bapat Road,Pune",18.52361,4.302005947591224,4.941642422609304
Owner,1,1,2,BHK,1069.93737,0,1,"Zirakpur,Mohali",30.65,4.341465022917759,3.713572066704308
Dealer,0,0,3,BHK,1773.144914,1,1,"Teen Haath Naka,Maharashtra",18.96,4.287990642747287,5.799092654460526
Dealer,1,1,1,BHK,617.9671647000001,0,0,"Electronics City Phase 1,Bangalore",12.840956,4.352333126234865,3.5115454388310208
Dealer,0,0,1,BHK,715.0153217999998,1,1,"Mira Road East,Lalitpur",19.2836,4.288642723422474,3.8918202981106265
Owner,0,0,3,BHK,1352.169526,1,1,"Kaloor,Kochi",9.994,4.33456808351418,4.204692619390966
Owner,0,0,2,BHK,1199.637845,1,1,"Ahinsa Khand 2,Ghaziabad",28.9196,4.342469464925427,3.970291913552122
Dealer,0,0,2,BHK,1363.109049,1,1,"Vishweshwara Nagar,Mysore",12.274538,4.339179217974417,3.8501476017100584
Dealer,1,0,2,BHK,802.572041,0,1,"Dum Dum,Kolkata",22.648322,4.482360000989414,3.517497837358316
Owner,0,0,2,BHK,950.1187648,1,1,"Agarpara,Kolkata",22.68333,4.481494862348484,3.1780538303479458
Dealer,0,1,2,BHK,1217.161984,1,1,"Rajaji Nagar,Bangalore",12.9847,4.350911284139344,4.787491742782046
Dealer,0,0,2,BHK,1050.052503,1,1,"Crossing Republik,Ghaziabad",28.629811,4.349428504726637,3.4011973816621555
Dealer,1,0,2,BHK,1073.878628,0,1,"jhusi,Allahabad",25.444108,4.40567250449819,3.7062280924485496
Dealer,0,0,1,BHK,609.9916634,1,1,"Pali Hill,Maharashtra",18.54138,4.293468197967886,5.703782474656201
Owner,0,0,2,BHK,777.1073322000002,1,1,"Madambakkam,Chennai",12.900422,4.384016553471545,3.7495040759303713
Owner,0,0,2,BHK,900.0692361,1,1,"Indirapuram,Ghaziabad",28.63676,4.3485105690337384,3.6635616461296463
Owner,0,0,2,BHK,900.0473708999998,1,1,"VOC Nagar,Pondicherry",10.774534,4.379975044100402,3.6375861597263857
Dealer,0,0,2,BHK,1079.913607,1,1,"Sector-127 Mohali,Mohali",30.768683000000006,4.339261033823946,2.995732273553991
Owner,0,0,3,BHK,1565.55773,1,1,"Chhota Bangarda,Indore",22.741503,4.328297454872261,3.6888794541139363
Dealer,0,0,2,BHK,950.0777336,1,1,"Kandivali (West),Lalitpur",19.1983,4.28827761063151,4.700480365792417
Dealer,0,0,3,BHK,1474.080747,1,1,"Sector 2 Kharghar,Lalitpur",19.027644,4.291296884915003,5.19295685089021
Owner,0,0,2,BHK,1250.0,1,1,"Keshri Nagar,Patna",25.625831,4.443832382216034,4.219507705176107
Dealer,0,0,2,BHK,987.2159091,1,1,"Sector-45 Noida,Noida",28.553374,4.348413114788923,3.3250360206965914
Owner,0,0,3,BHK,963.2751355,1,1,"Shanti Nagar,Bilaspur",22.089514,4.408218074680561,3.4657359027997265
Dealer,0,0,3,BHK,1350.135014,1,1,"Jagatpura,Jaipur",26.832353,4.3286489193897095,3.4011973816621555
Owner,0,0,2,BHK,1085.169352,1,1,"Arekere,Bangalore",12.8891,4.3515326327694215,4.189654742026425
Dealer,0,0,2,BHK,1187.172371,1,1,"Tollygunge,Kolkata",22.5,4.481306198765705,4.343805421853684
Dealer,1,1,3,BHK,1800.0,0,1,"Mulund (West),Maharashtra",19.1759,4.2898044321562825,5.598421958998375
Dealer,0,0,1,BHK,450.0,1,1,"Amar Shaheed Path,Lucknow",26.75,4.394449154672439,2.8903717578961645
Dealer,0,0,3,BHK,1610.087294,1,1,"Yelahanka,Bangalore",13.11389,4.3515459063390445,4.418840607796598
Owner,0,0,3,BHK,1600.0,1,1,"Aditya World City,Ghaziabad",28.66667,4.349202132082888,4.0943445622221
Owner,0,0,3,BHK,1825.047199,1,1,"Halar,Valsad",20.604366,4.2894663454523325,4.060443010546419
Dealer,0,0,2,BHK,750.0340924999998,1,1,"Shivaji Nagar,Lalitpur",25.454822,4.364326774761941,4.007333185232471
Dealer,0,0,2,BHK,1050.130672,1,1,"Kallikuppam,Chennai",13.09,4.385395952143486,3.7887247890836524
Dealer,0,0,2,BHK,1276.190476,1,1,"Gazipur,Mohali",30.638175,4.341594004445678,3.6938669956249757
Owner,0,0,2,BHK,1050.098447,1,1,"Horamavu,Bangalore",13.0318,4.352318433772913,3.871201010907891
Dealer,1,1,2,BHK,800.0,0,1,"Mohamadwadi,Pune",18.52361,4.302005947591224,3.784189633918261
Owner,0,0,1,BHK,677.2009029,1,1,"Katargam,Surat",21.232813,4.2881616525681086,3.044522437723423
Dealer,0,1,1,BHK,453.0011325,1,1,"Kolshet Road,Lalitpur",24.69028,4.362064842211599,4.219507705176107
Dealer,1,1,2,BHK,1118.864852,0,1,"Zirakpur,Chandigarh",30.662283,4.341496225242729,3.8732821771117156
Dealer,1,1,3,BHK,1675.312786,0,1,"Zirakpur,Chandigarh",30.662283,4.341496225242729,4.005513348515485
Owner,0,0,2,BHK,989.927058,1,1,"Egattur,Chennai",12.836144,4.384934814317155,4.04305126783455
Dealer,1,1,2,BHK,932.9149351,0,1,"Majiwada,Maharashtra",19.218498,4.290351407915751,4.700480365792417
Dealer,0,0,2,BHK,1151.271754,1,1,"Begur,Bangalore",12.8706,4.351926898654038,3.7612001156935624
Dealer,0,1,2,BHK,1277.013752,1,1,"Sector-137 Noida,Noida",28.506454,4.349110390526719,4.174387269895637
Dealer,0,1,3,BHK,1609.3404859999996,1,1,"Jahangirabad,Surat",21.17,4.288127958229824,3.9318256327243257
Owner,0,0,3,BHK,1305.142261,1,1,"Mathikere,Bangalore",13.036269,4.351001635716061,4.605170185988092
Dealer,0,0,2,BHK,800.0,1,1,"Saibaba Nagar,Mumbai",15.873765,4.364149600981777,5.075173815233827
Dealer,0,0,2,BHK,1130.00932,1,1,"Kharghar,Lalitpur",24.69028,4.362064842211599,4.574710978503383
Dealer,0,0,2,BHK,960.0529684,1,1,"Aundh,Pune",18.556218,4.301511877060635,4.465908118654584
Dealer,0,1,3,BHK,1574.590606,1,1,"Whitefield,Bangalore",12.9958935,4.35364508694623,4.471638793363569
Dealer,1,1,2,BHK,917.1252293,0,1,"Tathawade,Pune",18.6182,4.3006091282307795,4.007333185232471
Owner,0,0,2,BHK,780.3790412000002,1,1,"Vadsar,Vadodara",22.3,4.293195420967266,2.6390573296152584
Dealer,0,1,1,BHK,690.0212313999998,1,1,"Mira Road East,Lalitpur",19.2836,4.288642723422474,3.9512437185814275
Builder,1,1,2,BHK,852.4137931,0,0,"Vilankurichi,Coimbatore",11.074387,4.344045782575121,3.4307561839036995
Dealer,0,1,2,BHK,816.1044614,1,1,"Hirapur,Raipur",21.272756,4.401632600476595,3.1135153092103742
Dealer,0,0,1,BHK,828.0621047000002,1,0,"Hiranandani Estate,Maharashtra",19.255098,4.290206347479055,4.276666119016055
Dealer,0,1,2,BHK,1236.009064,1,1,"kurla (west),Lalitpur",19.0713,4.288855415661038,5.19295685089021
Owner,0,0,2,BHK,1135.159679,1,1,"Mundhwa,Pune",18.5348,4.303126815321278,4.31748811353631
Dealer,0,0,2,BHK,1050.030883,1,1,"Sector 34C Kharghar,Mumbai",19.038205,4.291364784625937,4.219507705176107
Dealer,0,0,3,BHK,1847.187238,1,1,"Sector-86 Gurgaon,Gurgaon",28.397468,4.343097236084392,4.700480365792417
Dealer,0,0,3,BHK,2182.684225,1,1,"Sector 82 Faridabad,Faridabad",28.394375,4.348434005104439,4.355425952876702
Dealer,0,0,3,BHK,1750.028226,1,1,"Thakur Village,Maharashtra",18.518797,4.303172086484224,5.736572297479192
Owner,0,0,3,BHK,800.0,1,1,"Tagore town,Allahabad",25.455213,4.4050545453434,4.0943445622221
Dealer,0,1,3,BHK,1529.79066,1,1,"Majiwada,Lalitpur",19.218498,4.290351407915751,5.247024072160486
Dealer,0,1,3,BHK,1018.387553,1,1,"Thane West,Mumbai",19.18,4.289956986171905,5.19295685089021
Dealer,1,0,1,BHK,428.0137341,0,1,"Thakur Village,Lalitpur",12.91668,4.351463813574045,4.51085950651685
Dealer,1,0,3,BHK,1287.5,0,1,"Baruipur,Kolkata",22.35,4.482324355989245,3.7184382563554808
Owner,0,0,2,BHK,950.0,1,1,"Bhopura,Ghaziabad",28.698133,4.348156280787406,3.6375861597263857
Dealer,0,0,3,BHK,1492.537313,1,1,"Chandivali,Maharashtra",18.58584,4.296900760823664,5.560681631015528
Owner,0,0,3,BHK,1482.030382,1,1,"Horamavu,Bangalore",13.0318,4.352318433772913,4.787491742782046
Dealer,1,1,2,BHK,1152.308252,0,1,"Jahangirabad,Surat",21.17,4.288127958229824,3.456316680883235
Dealer,0,1,3,BHK,745.4323995,1,1,"Sector 45 Faridabad,Faridabad",28.450804,4.347688263468509,3.4210000089583352
Owner,0,0,2,BHK,760.5016922,1,1,"Tobin Road,Kolkata",22.54111,4.481167875673758,3.6428355156125294
Owner,0,1,3,BHK,1495.162709,1,1,"Sector-143 Noida,Noida",28.5035,4.349328414738552,4.442651256490317
Dealer,1,0,2,BHK,907.1117562,0,0,"Sector-115 Mohali,Mohali",30.712867,4.339230779308912,3.2188758248682006
Owner,0,0,1,BHK,468.08510639999986,1,1,"Chiplun,Ratnagiri",17.524875,4.297559409492791,2.3978952727983707
Owner,0,0,2,BHK,651.8904824,1,1,"Madhavpuram,Meerut",28.9927,4.352628719489321,2.70805020110221
Dealer,1,0,2,BHK,630.0114547999998,0,1,"Uttarpara,Kolkata",22.67,4.481306198765705,3.091042453358316
Dealer,1,1,3,BHK,2150.304083,0,1,"Vesu,Surat",21.143354,4.287316576010838,4.59511985013459
Dealer,1,1,2,BHK,626.2135922,0,0,"Thanisandra,Bangalore",13.055985,4.351852914784227,4.1666652238017265
Dealer,0,0,2,BHK,1017.293998,1,1,"Sector-27 Kharghar,Maharashtra",19.061701,4.291561409101085,4.700480365792417
Dealer,0,0,3,BHK,1214.329083,1,1,"Poonam Gardens,Lalitpur",24.69028,4.362064842211599,4.605170185988092
Owner,0,0,2,BHK,1250.0,1,1,"Bellandur,Bangalore",12.9255,4.352552766325352,4.0943445622221
Dealer,0,1,3,BHK,1974.103163,1,1,"Rayasandra,Bangalore",12.87004,4.352511247114906,4.532599493153256
Owner,0,0,2,BHK,914.0767824,1,1,"Sarjapur Road,Bangalore",12.86,4.353961466405538,3.6888794541139363
Dealer,1,1,3,BHK,979.7746518,0,0,"Balkum,Maharashtra",19.222101,4.2902982089731,4.941642422609304
Dealer,0,0,1,BHK,655.0218341,1,1,"Sector 21 Ulwe,Mumbai",18.973908,4.290803299830437,3.8066624897703196
Dealer,0,1,3,BHK,2067.649242,1,1,"Chembur,Lalitpur",19.05871,4.289084386605023,5.966146739123692
Dealer,0,0,1,BHK,730.0204918,1,1,"Sector 19 Ulwe,Maharashtra",19.049989,4.291518072381383,4.04305126783455
Builder,0,0,3,BHK,1225.114855,1,0,"Hingna Road,Lalitpur",24.69028,4.362064842211599,3.6888794541139363
Owner,0,0,2,BHK,1000.0,1,1,"Ratanpur,Kotdwara",29.741039,4.363482474675447,3.2188758248682006
Dealer,0,1,2,BHK,1329.787234,1,1,"Pholriwal,Jalandhar",31.261414,4.325323959616295,3.6888794541139363
Dealer,0,0,3,BHK,1310.125398,1,1,"Rajarhat,Kolkata",22.54111,4.481167875673758,4.248495242049359
Owner,0,0,2,BHK,1050.119332,1,1,"Vaishali Nagar,Jaipur",26.91868,4.3274437117023385,3.784189633918261
Dealer,1,0,2,BHK,1099.00174,0,1,"Manpada,Mumbai",19.239813,4.28994865318418,4.787491742782046
Owner,0,0,3,BHK,1404.180629,1,1,"Mylasandra,Bangalore",12.852041,4.351777649936183,4.477336814478207
Dealer,1,1,2,BHK,576.7012687000001,0,0,"Goregaon (West),Lalitpur",19.161955,4.288259983016846,4.867534450455582
Owner,0,0,2,BHK,1267.197683,1,1,"SG Enclave,Amritsar",31.682414,4.316254152519469,3.5553480614894135
Dealer,0,1,1,BHK,576.0,1,1,"Kolshet Road,Mumbai",19.249861,4.289964332300862,4.276666119016055
Dealer,0,1,1,BHK,418.9066536,1,1,"Chembur (East),Mumbai",19.05871,4.289084386605023,4.787491742782046
Dealer,0,0,2,BHK,1129.908619,1,1,"Sector-16 Ulwe,Mumbai",19.076466,4.290456756213279,4.516338972281476
Owner,1,0,2,BHK,900.2770082999998,0,1,"Royal City,Jaipur",10.794455,4.371367451894539,2.5649493574615367
Dealer,0,1,2,BHK,1285.21997,1,1,"Vaibhav Khand,Ghaziabad",28.9196,4.342469464925427,3.9512437185814275
Dealer,0,0,3,BHK,2356.432187,1,1,"Baner,Pune",18.558319,4.301031848917809,5.598421958998375
Dealer,0,0,3,BHK,1425.178147,1,1,"Iyyappanthangal,Chennai",13.035866,4.383714758989897,4.0943445622221
Dealer,0,0,3,BHK,1705.708438,1,1,"Kakkanad,Kochi",9.930471,4.334296366740936,4.31748811353631
Dealer,0,0,3,BHK,906.6666667000003,1,1,"Thane West,Mumbai",19.18,4.289956986171905,5.135798437050262
Dealer,0,1,2,BHK,1159.885796,1,1,"Karuna Nagar,Bangalore",12.96991,4.351541138183826,4.174387269895637
Owner,0,1,2,BHK,1250.0,1,1,"Shastripuram,Agra",27.553339,4.365305982958139,3.4657359027997265
Owner,0,0,2,BHK,1080.139373,1,1,"Kalol,Gandhinagar",23.2257,4.283818121255579,3.4339872044851463
Dealer,0,0,2,BHK,926.0484191,1,1,"B.T Kawade Road,Pune",18.749,4.308678758189627,4.248495242049359
Dealer,0,0,2,BHK,1000.0,1,1,"Sector-9 Ulwe,Lalitpur",28.716907,4.345423579462668,4.248495242049359
Dealer,0,0,2,BHK,1150.012778,1,1,"Sector 78 Faridabad,Faridabad",28.38016,4.348598281367018,3.8066624897703196
Dealer,0,1,3,BHK,1263.823065,1,1,"Balkum,Mumbai",19.222101,4.2902982089731,4.787491742782046
Dealer,0,1,2,BHK,1342.826244,1,1,"Sector-100 Noida,Noida",28.542768,4.3485439952422125,4.310799125385514
Owner,0,1,3,BHK,1364.1585300000004,1,1,"Hosa Road,Bangalore",12.863589,4.3522943021268246,4.553876891600541
Dealer,0,0,2,BHK,900.0090001,1,1,"Manpada,Mumbai",19.239813,4.28994865318418,4.605170185988092
Owner,0,0,2,BHK,892.0606601,1,1,"Saraffa Bazar Near Ganesh Mandir,Meerut",19.175341,4.289673296601288,4.0943445622221
Dealer,0,0,1,BHK,593.8927627,1,1,"Nalasopara (West),Lalitpur",24.69028,4.362064842211599,3.2068032436339315
Dealer,0,0,3,BHK,1181.553004,1,1,"Chembur,Mumbai",19.05871,4.289084386605023,5.768320995793772
Dealer,0,1,2,BHK,1315.053162,1,1,"Zirakpur,Chandigarh",30.662283,4.341496225242729,3.8501476017100584
Dealer,0,0,2,BHK,1071.080818,1,1,"Kolshet Road,Maharashtra",19.249861,4.289964332300862,4.700480365792417
Dealer,0,0,2,BHK,905.0546448,1,1,"Suraksha Nagar,Bangalore",20.098413,4.370812237725695,3.970291913552122
Dealer,0,1,3,BHK,1485.009807,1,1,"Zirakpur,Chandigarh",30.662283,4.341496225242729,3.970291913552122
Owner,0,0,2,BHK,1388.888889,1,1,"Sirhind By-Pass,Patiala",30.593562,4.336209358964198,3.8066624897703196
Dealer,0,0,2,BHK,1100.352113,1,1,"Dabhoi Road,Vadodara",22.12947,4.296163144065069,3.2188758248682006
Builder,1,0,2,BHK,1102.2364220000004,0,0,"Amalanagar,Thrissur",10.52,4.333492687678026,3.877431560658527
Dealer,0,0,3,BHK,1880.141011,1,1,"Kharghar,Mumbai",19.038205,4.291364784625937,5.075173815233827
Dealer,1,1,3,BHK,1297.989031,0,1,"Virar West,Lalitpur",19.4559,4.2878725363497665,4.157319361383489
Dealer,0,1,3,BHK,2046.38472,1,1,"Sector-102 Gurgaon,Gurgaon",28.479440000000004,4.3434343400243245,4.787491742782046
Dealer,0,1,3,BHK,1699.716714,1,1,"Sidhwan Canal Road,Ludhiana",31.09256,4.3243867961441325,4.276666119016055
Dealer,0,0,2,BHK,1250.0,1,1,"Sector-38 Seawoods,Maharashtra",19.019169,4.290652381438326,4.941642422609304
Owner,0,0,3,BHK,981.3084112,1,1,"Mango,Jamshedpur",22.835481,4.456914915700291,3.044522437723423
Dealer,0,0,2,BHK,1095.290252,1,1,"Sector-34A Kharghar,Mumbai",19.038205,4.291364784625937,4.787491742782046
Dealer,0,0,2,BHK,1050.019091,1,1,"Dahisar (East),Maharashtra",19.256471,4.288660769713819,4.700480365792417
Dealer,1,1,1,BHK,498.2964225,0,1,"Naigaon (East),Maharashtra",19.35269,4.288605998556956,3.152736022363656
Owner,0,0,1,BHK,650.0956022999999,1,1,"Talawali Chanda,Indore",22.66667,4.327438444389479,2.833213344056216
Owner,0,0,1,BHK,645.9770115,1,1,"Nagavarapalya,Bangalore",12.96991,4.351541138183826,3.3357695763397
Dealer,0,0,2,BHK,1060.114742,1,1,"Sector 22 Kamothe,Lalitpur",23.234655,4.285678372498446,4.442651256490317
Dealer,0,1,2,BHK,1120.657452,1,1,"Balkum,Lalitpur",24.69028,4.362064842211599,4.787491742782046
Builder,1,1,3,BHK,1570.247934,0,0,"Gotri,Vadodara",22.312358,4.292449733175152,3.6375861597263857
Owner,0,0,3,BHK,1527.183873,1,1,"Singasandra,Bangalore",12.879728,4.3522153744425,4.605170185988092
Dealer,0,0,2,BHK,1045.10451,1,1,"Sector-7 Kamothe,Lalitpur",19.072166,4.290278575478113,4.330733340286331
Dealer,0,0,2,BHK,1365.0,1,1,"Bani Park,Jaipur",26.930121000000003,4.327976425064462,4.405498990859024
Owner,0,0,1,BHK,553.0682117,1,1,"Uruli Kanchan Irrigation Colony Near Pune Solapur,Pune",18.48333,4.305865228744288,3.044522437723423
Dealer,0,0,2,BHK,1273.12897,1,1,"Sector 88 Faridabad,Faridabad",28.431862,4.348354849703258,3.8308129500026027
Owner,0,0,3,BHK,1536.09831,1,1,"Vrindavan Yojna,Lucknow",26.766594,4.393829320639699,4.787491742782046
Dealer,0,0,2,BHK,659.0038314,1,1,"Kasar vadavali,Mumbai",18.205923,4.290448235606157,4.454347296253507
Owner,0,1,2,BHK,1010.10101,1,1,"Sector-78 Noida,Noida",28.560719,4.348808573503271,3.871201010907891
Owner,0,0,1,BHK,610.0422337,1,1,"Bekrai Nagar,Pune",18.52361,4.302005947591224,3.258096538021482
Dealer,1,1,2,BHK,1084.0,0,1,"Kashigaon,Lalitpur",24.6902,4.362027988167192,4.398146016553765
Owner,0,0,3,BHK,1525.010167,1,1,"Sector-51 Noida,Noida",28.535783,4.348993266362762,5.0106352940962555
Dealer,0,1,2,BHK,1073.138517,1,1,"Taloja,Maharashtra",21.56128,4.306930982617215,4.174387269895637
Dealer,0,0,2,BHK,1032.204789,1,1,"Kharghar,Mumbai",19.038205,4.291364784625937,4.605170185988092
Dealer,1,1,2,BHK,731.7073171,0,0,"Jalaram Nagar,Vadodara",22.056816,4.291965019525021,3.086486636822455
Dealer,0,0,3,BHK,1840.168244,1,1,"Mominpore,Kolkata",22.54111,4.481167875673758,4.941642422609304
Owner,0,0,2,BHK,1274.078568,1,1,"MP Nagar,Bhopal",23.232556,4.349371499863387,4.430816798843313
Dealer,0,1,3,BHK,2060.641743,1,1,"Whitefield,Bangalore",12.9958935,4.35364508694623,4.941642422609304
Dealer,1,0,2,BHK,790.3225806,0,1,"Salugara,Siliguri",26.724219,4.481038556840746,3.1986731175506815
Owner,0,0,3,BHK,1250.0,1,1,"Kherado,Alwar",27.545136,4.339256089315067,3.2188758248682006
Dealer,0,1,1,BHK,606.0173963,1,1,"Wadala,Mumbai",31.292091,4.324712130711327,5.135798437050262
Dealer,0,1,2,BHK,1180.080245,1,1,"Sector 23 Ulwe,Lalitpur",28.509982,4.344478571860749,4.605170185988092
Dealer,0,0,2,BHK,1300.091771,1,1,"Kharghar,Lalitpur",24.69028,4.362064842211599,4.442651256490317
Dealer,0,0,3,BHK,1529.411765,1,1,"Sector 21 Kharghar,Lalitpur",19.049822,4.29138497161701,4.867534450455582
Owner,0,0,2,BHK,1150.109062,1,1,"Sector-1 Vaishali,Ghaziabad",28.6423,4.3482694691257455,4.060443010546419
Dealer,1,1,2,BHK,1267.719258,0,1,"Balewadi,Pune",18.097689000000006,4.313951721198811,4.700480365792417
Dealer,0,0,3,BHK,1820.072803,1,1,"Baner,Pune",18.558319,4.301031848917809,4.941642422609304
Dealer,0,1,2,BHK,1100.110011,1,1,"Taloja Panchanand,Lalitpur",24.69028,4.362064842211599,4.0943445622221
Dealer,0,0,2,BHK,1373.567412,1,1,"Wadala East,Lalitpur",19.014858,4.288624882662238,5.768320995793772
Owner,1,0,2,BHK,1250.0,0,1,"Trimulgherry,Secunderabad",17.47111,4.363218872335406,4.0943445622221
Dealer,0,0,1,BHK,715.0983259999998,1,1,"Undri,Pune",18.452663,4.303132766831081,3.784189633918261
Owner,0,0,2,BHK,1180.327869,1,1,"Avanti Vihar,Raipur",21.244392,4.4026999000116085,3.58351893845611
Dealer,0,0,1,BHK,460.0141543,1,1,"Kasar vadavali,Mumbai",18.205923,4.290448235606157,4.174387269895637
Owner,0,0,3,BHK,1750.448833,1,1,"Sector-20 Panchkula,Panchkula",30.6665,4.342018111279588,4.069026754237811
Owner,0,0,2,BHK,1250.0,1,1,"Gollapudi,Vijayawada",16.535675,4.389293119707915,3.8066624897703196
Owner,0,0,1,BHK,454.5454545,1,1,"Thirunagar,Madurai",9.91966,4.358238297478247,2.6878474937846906
Dealer,0,1,2,BHK,1156.25,1,1,"Zirakpur,Chandigarh",30.662283,4.341496225242729,3.6109179126442243
Owner,0,0,3,BHK,1275.148767,1,1,"Anantpura,Kota",25.112376,4.328843239381001,3.8066624897703196
Dealer,0,0,2,BHK,789.4736842,1,1,"Thakur Village,Lalitpur",12.91668,4.351463813574045,5.0106352940962555
Dealer,0,1,3,BHK,1464.128843,1,1,"Mira Road,Maharashtra",19.283359,4.288607919921172,4.787491742782046
Dealer,0,0,1,BHK,744.7402718,1,1,"Chembur,Lalitpur",19.05871,4.289084386605023,5.075173815233827
Dealer,0,0,4,BHK,2197.260274,1,1,"Kundli,Sonipat",28.874383,4.345275133506002,4.384523514872469
Dealer,0,0,2,BHK,1262.980634,1,1,"Kanjur Marg (East),Mumbai",19.221571,4.291041107564116,5.19295685089021
Dealer,0,0,3,BHK,2500.0,1,1,"Sector-29 Noida,Noida",28.568966,4.3481516516107686,5.0106352940962555
Dealer,0,0,2,BHK,1096.057239,1,1,"Shankar Kalat Nagar,Pune",19.957301,4.301899195285714,4.276666119016055
Owner,0,0,2,BHK,900.090009,1,1,"Niti Khand 3,Ghaziabad",28.9196,4.342469464925427,3.6888794541139363
Dealer,1,1,2,BHK,636.682243,0,1,"Andawa,Allahabad",25.427367,4.406049767114859,3.0819099697950434
Dealer,1,0,3,BHK,1750.164078,0,1,"Sector-14 Gurgaon,Gurgaon",28.4729,4.344420816874903,4.382026634673881
Owner,0,0,3,BHK,1078.705553,1,1,"Belgharia,Kolkata",22.6581,4.481704534812689,3.295836866004329
Owner,0,0,2,BHK,1199.563795,1,1,"Kailash Nagar,Surat",21.631476,4.290191432634578,3.091042453358316
Owner,1,1,3,BHK,1575.0,0,1,"Zirakpur,Chandigarh",30.662283,4.341496225242729,4.238444906195857
Dealer,0,0,2,BHK,1020.049244,1,1,"Sector-11 Taloja,Mumbai",30.760351,4.341060098457979,4.060443010546419
Dealer,0,0,3,BHK,1904.761905,1,1,"Raja Park,Jaipur",26.894117,4.328494678457037,4.605170185988092
Owner,0,0,3,BHK,1125.304136,1,1,"Aditya City Apartment,Ghaziabad",28.66667,4.349202132082888,3.6109179126442243
Dealer,1,1,1,BHK,462.7862595,0,0,"kavesar,Mumbai",18.96667,4.288173680100944,4.469350462845557
Dealer,0,0,3,BHK,1301.78421,1,1,"Sector 7 Kharghar,Lalitpur",19.035407,4.2913556011209,5.135798437050262
Owner,0,0,2,BHK,1199.887069,1,1,"Harlur,Bangalore",12.928575,4.351383402525714,4.442651256490317
Dealer,0,0,1,BHK,556.0851605,1,1,"Usarli Khurd,Lalitpur",24.69028,4.362064842211599,3.5553480614894135
Owner,0,1,3,BHK,1501.812532,1,1,"NIBM,Pune",18.475864,4.302577622603228,4.465908118654584
Dealer,0,0,3,BHK,1073.913043,1,1,"Kotrung,Kolkata",22.682359,4.481363027937541,3.2068032436339315
Owner,0,0,2,BHK,1290.322581,1,1,"Adajan,Surat",24.395822,4.369316540048455,3.871201010907891
Dealer,0,1,3,BHK,1377.593361,1,1,"Zirakpur,Chandigarh",30.662283,4.341496225242729,3.9080149840306073
Dealer,1,1,2,BHK,873.6608792000003,0,1,"Taloja,Mumbai",19.076057,4.291791690296566,3.856510295497887
Dealer,0,1,2,BHK,473.8302934,1,1,"Sector 82 Faridabad,Faridabad",28.394375,4.348434005104439,3.173878458937465
Dealer,1,0,2,BHK,1265.130808,0,1,"Shilphata,Lalitpur",24.69028,4.362064842211599,4.1713056033582285
Owner,0,0,3,BHK,1431.560401,1,1,"Caranzalem,Panaji",15.462648000000002,4.301419542765521,4.867534450455582
Dealer,0,1,3,BHK,1721.170396,1,1,"sector-121 Noida,Noida",28.602325,4.349012542537741,4.867534450455582
Owner,0,0,1,BHK,658.0016247000002,1,1,"Makarpura,Vadodara",22.24124,4.29319953298067,2.785011242238338
Dealer,0,0,3,BHK,2155.94682,1,1,"Whitefield,Bangalore",12.9958935,4.35364508694623,5.19295685089021
Builder,1,1,1,BHK,457.612203,0,0,"Punawale,Pune",18.637802,4.300625563175127,3.4404180948154366
Owner,0,0,3,BHK,1406.110188,1,1,"Yelahanka,Bangalore",13.11389,4.3515459063390445,4.700480365792417
Dealer,0,0,3,BHK,1351.849576,1,1,"Kedari Nagar,Pune",18.484943,4.302770228201183,4.700480365792417
Dealer,0,0,3,BHK,1330.555556,1,1,"Sodepur,Kolkata",22.69995,4.4817682651714525,3.8691155044168695
Owner,0,0,1,BHK,750.122971,1,1,"Athwa Gate,Surat",20.75,4.299776586365508,3.417726683613366
Owner,0,0,3,BHK,1215.066829,1,1,"Zirakpur,Chandigarh",30.662283,4.341496225242729,3.4011973816621555
Dealer,0,1,2,BHK,870.3859060000002,1,1,"Lohegaon,Pune",18.595456,4.303336287149003,3.7256934272366524
Dealer,1,1,3,BHK,1800.110436,0,1,"Zirakpur,Chandigarh",30.662283,4.341496225242729,4.177459468932607
Dealer,0,0,3,BHK,1380.195795,1,1,"Dhanori,Pune",18.578765,4.302586879562909,4.454347296253507
Owner,0,0,2,BHK,850.0772798,1,1,"YELAMALAKUDURU,Vijayawada",16.485583,4.390272816269394,3.091042453358316
Owner,0,0,1,BHK,562.2913372,1,1,"Wagholi,Pune",18.5823,4.303835337082524,3.4657359027997265
Dealer,1,0,3,BHK,1420.185571,0,1,"Karthik Nagar,Bangalore",12.901969,4.315290193211433,4.31748811353631
Dealer,0,0,3,BHK,1798.410707,1,1,"Sunny Enclave,Mohali",30.664299,4.3414340929939765,3.7612001156935624
Owner,0,0,2,BHK,890.0316456,1,1,"Valmikinagar, Thiruvanmiyur,Chennai",12.984808,4.385279725132754,4.499809670330265
Dealer,0,0,3,BHK,1200.274348,1,1,"Phase 1 Kammasandra,Bangalore",12.863492,4.353388319903727,3.5553480614894135
Owner,0,0,4,BHK,1250.0,1,1,"Teela Jamalpura,Bhopal",23.276856,4.348911803624771,3.367295829986474
Owner,0,0,2,BHK,924.9471459,1,1,"New Washi Naka,Kolhapur",16.643818,4.306380168105861,3.5553480614894135
Owner,0,0,3,BHK,1000.0,1,1,"Vidhyut Nagar,Jaipur",26.898139,4.327434180353985,3.6375861597263857
Dealer,0,0,2,BHK,1263.94052,1,1,"Kundli,Sonipat",28.874383,4.345275133506002,3.5263605246161616
Dealer,1,1,2,BHK,1170.094839,0,1,"Panvel,Maharashtra",18.966114,4.292488586519191,4.553876891600541
Owner,0,0,1,BHK,650.0847937000002,1,1,"Kabir Nagar,Raipur",30.872533,4.32916917024152,2.4423470353692043
Dealer,0,0,2,BHK,1160.092807,1,1,"Annasandrapalya,Bangalore",12.96991,4.351541138183826,3.8066624897703196
Owner,0,0,1,BHK,520.1560468,1,1,"Malkajgiri,Secunderabad",17.4569,4.363525285348157,2.4849066497880004
Dealer,0,0,2,BHK,1040.582726,1,1,"Vishveshwar Nagar,Mumbai",18.96667,4.288173680100944,5.393627546352362
Dealer,0,1,2,BHK,1320.233344,1,1,"Raj Nagar Extension,Ghaziabad",26.900926,4.327780656455312,3.7612001156935624
Owner,0,1,2,BHK,884.8080133999998,1,1,"Raj Nagar Extension,Ghaziabad",26.900926,4.327780656455312,3.2771447329921766
Dealer,0,0,2,BHK,1381.079215,1,1,"Sector 19 Kharghar,Lalitpur",19.048979,4.291530538551587,4.941642422609304
Owner,0,0,3,BHK,1401.206101,1,1,"Padmanabhanagar,Bangalore",12.9155,4.351031200971362,4.3694478524670215
Builder,1,1,1,BHK,609.6551724,0,0,"Vilankurichi,Coimbatore",11.074387,4.344045782575121,3.095577608523707
Dealer,0,1,2,BHK,1075.032909,1,1,"Ghotkamp Koyana Vele,Mumbai",19.078847,4.291931959201068,3.8918202981106265
Owner,0,1,3,BHK,1680.244399,1,1,"Hosa Road,Bangalore",12.863589,4.3522943021268246,4.59511985013459
Dealer,0,0,3,BHK,970.3085581,1,1,"Mira Road East,Maharashtra",19.2836,4.288642723422474,4.605170185988092
Owner,0,0,3,BHK,1555.299539,1,1,"Dasrath Pally,Siliguri",26.724219,4.481038556840746,4.212127597878484
Dealer,0,0,2,BHK,1129.943503,1,1,"Mindspace,Lalitpur",24.69028,4.362064842211599,5.247024072160486
Dealer,0,0,2,BHK,860.0158772,1,1,"Lokhandwala Kandivali East,Mumbai",19.1955,4.288715455535724,4.867534450455582
Builder,1,0,2,BHK,830.0,0,0,"Valasaravakkam,Chennai",13.04394,4.384180688034263,4.1956970564823886
Owner,0,0,2,BHK,1200.111638,1,1,"Chullickal,Kochi",9.9449,4.334062004657343,3.7612001156935624
Owner,0,0,2,BHK,953.1590414,1,1,"Gollahalli,Bangalore",13.1479,4.349218020007658,3.5553480614894135
Dealer,0,0,2,BHK,952.3809524,1,1,"I C Colony,Mumbai",18.96667,4.288173680100944,5.075173815233827
Owner,0,1,4,BHK,1944.742489,1,1,"Zirakpur,Chandigarh",30.662283,4.341496225242729,4.283586561860629
Dealer,0,0,3,BHK,1150.0,1,1,"Chembur,Lalitpur",19.05871,4.289084386605023,5.438079308923196
Owner,0,0,3,BHK,849.0165558,1,1,"Jadavpur,Kolkata",22.494831,4.481538961713924,4.0943445622221
Dealer,0,1,3,BHK,1773.0496449999996,1,1,"Sarjapur Road,Bangalore",12.86,4.353961466405538,4.700480365792417
Owner,0,0,2,BHK,1300.052002,1,1,"Indira Nagar,Lucknow",26.886881,4.394380263410601,4.31748811353631
Builder,1,1,3,BHK,1500.0,0,0,"Kompally,Secunderabad",17.546483,4.362847676105924,4.04305126783455
Owner,0,0,1,BHK,459.97259739999987,1,1,"Pen,Raigad",18.75,4.291554731509806,3.1570004211501135
Owner,0,1,2,BHK,1218.701529,1,1,"Kanakpura Road,Bangalore",12.896796,4.351211693820468,4.700480365792417
Dealer,0,1,1,BHK,567.2131147999999,1,1,"Mahim,Palghar",19.6394,4.286693454605053,2.8507065015037334
Owner,0,0,1,BHK,513.3333333,1,1,"Ambegaon Bk,Pune",18.347616,4.298461082187819,2.7343675094195836
Owner,0,0,1,BHK,550.0550055,1,1,"Hari Om Nagar,Kolhapur",16.687388000000002,4.306810281184755,3.2188758248682006
Owner,0,1,3,BHK,1840.225157,1,1,"Sector-129 Noida,Noida",28.507373,4.348815176725292,4.442651256490317
Builder,0,1,3,BHK,1721.875,1,0,"Naya Raipur,Raipur",29.9055,4.320878360150297,4.009149716158869
Dealer,1,1,2,BHK,772.0631904,0,1,"Dhokali,Mumbai",18.96667,4.288173680100944,4.867534450455582
Dealer,0,1,2,BHK,824.0317627000002,1,1,"Hiranandani Estate,Maharashtra",19.255098,4.290206347479055,4.700480365792417
Dealer,1,1,3,BHK,1388.2352939999996,0,1,"Uttardhauna,Lucknow",26.86056,4.393409478594049,3.8543938925915096
Dealer,0,0,2,BHK,1250.0,1,1,"Manish Nagar,Lalitpur",19.12775,4.288094935578307,3.9512437185814275
Dealer,0,0,3,BHK,1125.080593,1,1,"Kharar-Landran Road,Mohali",30.74,4.339249605317823,3.5524868292083815
Dealer,0,1,3,BHK,1804.966096,1,1,"Powai,Maharashtra",19.12,4.289225803818339,5.91350300563827
Owner,0,0,2,BHK,1050.052503,1,1,"Gubbalala,Bangalore",12.96991,4.351541138183826,4.0943445622221
Dealer,0,1,3,BHK,845.5944529,1,0,"New Panvel,Lalitpur",18.966114,4.292488586519191,4.605170185988092
Dealer,0,0,1,BHK,700.0,1,1,"Mira Road East,Lalitpur",19.2836,4.288642723422474,4.02535169073515
Owner,0,0,2,BHK,908.832718,1,1,"Kumaranasan Nagar,Ernakulam",9.978538,4.334688940783603,3.4657359027997265
Owner,1,1,3,BHK,1391.035549,0,1,"Jagatpura,Jaipur",26.832353,4.3286489193897095,3.8066624897703196
Owner,0,0,2,BHK,972.2222222,1,1,"Sughad,Gandhinagar",23.126218,4.285361909136564,3.332204510175204
Dealer,0,0,2,BHK,777.1428571,1,1,"Borivali (West),Lalitpur",19.2361,4.2881801331696625,5.135798437050262
Dealer,0,1,2,BHK,1193.00106,1,1,"Bibwewadi,Pune",18.47372,4.302270551544606,4.499809670330265
Owner,0,0,2,BHK,990.0990099,1,1,"Chandapura,Bangalore",12.80009,4.353007369356111,3.5553480614894135
Owner,1,1,2,BHK,899.8691098999999,0,1,"Kanakpura Road,Bangalore",12.896796,4.351211693820468,4.007333185232471
Dealer,0,0,1,BHK,639.9317406,1,1,"Sector-8 Ulwe,Mumbai",19.216097,4.288014276085156,3.8066624897703196
Dealer,0,0,1,BHK,680.9669731,1,1,"Link Road,Maharashtra",19.213466,4.288197926947684,4.605170185988092
Dealer,0,1,1,BHK,555.5555555999998,1,0,"Mount Road,Chennai",13.048973,4.385125528139828,4.605170185988092
Dealer,1,1,2,BHK,1173.062998,0,1,"Whitefield,Bangalore",12.9958935,4.35364508694623,4.394449154672439
Dealer,0,0,2,BHK,1087.150241,1,1,"Dum Dum,Kolkata",22.648322,4.482360000989414,4.110873864173311
Owner,0,0,3,BHK,750.085237,1,1,"Punjabi Bagh,Bhopal",23.258447,4.349518034804009,3.091042453358316
Dealer,0,0,2,BHK,1000.0,1,1,"Market yard,Pune",18.488418,4.302322386383172,4.442651256490317
Dealer,0,1,3,BHK,1593.272848,1,1,"Ahinsa Khand 1,Ghaziabad",28.9196,4.342469464925427,4.276666119016055
Owner,0,0,2,BHK,950.0542888,1,1,"Govind Nagar,Jaipur",26.936483000000006,4.328615467597428,3.5553480614894135
Dealer,0,1,2,BHK,951.1077158,1,1,"Sector-151 Noida,Noida",28.44414,4.349837813713085,3.214867803470662
Dealer,1,0,3,BHK,1500.0,0,1,"Kharadi,Pune",18.5438,4.303305345209278,4.31748811353631
Dealer,0,1,3,BHK,1885.197562,1,1,"Sector-85 Mohali,Mohali",30.66486,4.339981327107075,4.563305981889393
Dealer,0,0,2,BHK,1240.096452,1,1,"Zirakpur,Chandigarh",30.662283,4.341496225242729,3.58351893845611
Owner,1,1,3,BHK,1415.428167,0,1,"Baidyanath Nagar,Berhampur",19.32,4.440059665924491,3.6888794541139363
Owner,0,0,2,BHK,1240.221332,1,1,"Wardha Road,Nagpur",20.75,4.36458376346199,4.174387269895637
Dealer,0,1,2,BHK,812.9346942000002,1,1,"Balkum,Lalitpur",24.69028,4.362064842211599,4.499809670330265
Dealer,0,0,3,BHK,1647.898929,1,1,"Sector-104 Noida,Noida",28.537227,4.348604498232763,4.787491742782046
Dealer,0,1,2,BHK,1200.05275,1,1,"Mira Road East,Lalitpur",19.2836,4.288642723422474,4.51085950651685
Owner,0,0,3,BHK,1434.901878,1,1,"Kodigehaali,Bangalore",13.0583,4.3512220067136465,4.219507705176107
Dealer,0,1,2,BHK,1215.168657,1,1,"Pumpwell,Mangalore",12.863386,4.315750324455147,4.060443010546419
Owner,0,0,2,BHK,960.0180709,1,1,"Tansi Nagar,Chennai",13.09,4.385395952143486,4.442651256490317
Owner,0,1,3,BHK,2295.492487,1,1,"Sector-121 Mohali,Mohali",30.696627000000003,4.339820401286914,4.700480365792417
Owner,0,0,2,BHK,1000.0,1,1,"Desa Pathrunipalem,Visakhapatnam",17.638457,4.42034478920133,2.970414465569701
Dealer,1,1,3,BHK,1764.446405,0,1,"Konanakunte,Bangalore",12.8855,4.351100823501241,5.075173815233827
Owner,0,1,2,BHK,1242.0431609999996,1,1,"Sarjapur Road,Bangalore",12.86,4.353961466405538,4.382026634673881
Owner,1,0,2,BHK,800.0,0,1,"Ashokpuram Colony,Varanasi",25.30694,4.418914219545018,3.258096538021482
Owner,0,0,1,BHK,450.0281268,1,1,"Sector 29 Faridabad,Faridabad",28.432682,4.347986331993415,3.1780538303479458
Owner,0,1,1,BHK,678.119349,1,1,"Pen,Raigad",18.75,4.291554731509806,3.4011973816621555
Dealer,0,0,3,BHK,1844.28929,1,1,"Ramagondanahalli,Bangalore",12.96991,4.351541138183826,4.941642422609304
Dealer,0,1,2,BHK,1015.123265,1,1,"Taloja Panchanand,Lalitpur",24.69028,4.362064842211599,3.8918202981106265
Owner,0,0,2,BHK,932.8358209,1,1,"Raj Nagar Extension,Ghaziabad",26.900926,4.327780656455312,3.2188758248682006
Dealer,1,1,1,BHK,470.388649,0,1,"Wagholi,Pune",18.5823,4.303835337082524,3.417726683613366
Dealer,0,0,3,BHK,1910.04313,1,1,"Zirakpur,Chandigarh",30.662283,4.341496225242729,4.127134385045092
Owner,0,0,2,BHK,1179.673321,1,1,"Kengeri Satellite Town,Bangalore",12.91,4.350019838538795,3.6635616461296463
Dealer,0,1,2,BHK,1025.056948,1,1,"Taloja,Maharashtra",21.56128,4.306930982617215,3.9889840465642745
Dealer,0,1,4,BHK,2200.220022,1,0,"Dera Bassi,Chandigarh",30.594843,4.341853257880662,4.0943445622221
Owner,1,1,1,BHK,599.1611744,0,1,"Raj Nagar Extension,Ghaziabad",26.900926,4.327780656455312,2.995732273553991
Dealer,0,0,2,BHK,1100.060277,1,1,"Mira Bhayandar,Maharashtra",19.30405,4.287902187860262,4.290459441148391
Owner,1,1,2,BHK,1256.862179,0,1,"Thanisandra,Bangalore",13.055985,4.351852914784227,4.465908118654584
Dealer,0,0,3,BHK,1355.199135,1,1,"Srirampura,Mysore",12.265026,4.338919348571193,4.320151230955794
Owner,0,0,3,BHK,1033.295063,1,1,"Maktampur,Bharuch",21.706242,4.2906953996093735,3.8066624897703196
Dealer,0,1,2,BHK,1304.052997,1,1,"Andheri (East),Mumbai",19.1145,4.288693499228774,5.521460917862246
Dealer,0,0,3,BHK,1400.124456,1,1,"Pimple Saudagar,Pune",18.5956,4.3013329860175595,4.499809670330265
Dealer,0,0,2,BHK,800.0,1,1,"Sector 20 Kharghar,Mumbai",19.049214000000006,4.291457791945418,4.394449154672439
Dealer,0,0,1,BHK,569.1056911000002,1,1,"Kadavanthara,Kochi",9.967,4.3346703170549965,3.332204510175204
Dealer,0,0,1,BHK,620.0455222999999,1,1,"Sector 8 Airoli,Mumbai",19.216097,4.288014276085156,4.3694478524670215
Owner,0,0,2,BHK,730.1808067000002,1,1,"Vijay Nagar,Indore",22.759741,4.329278756576408,3.044522437723423
Owner,0,1,2,BHK,1075.268817,1,1,"Undavalli,Vijayawada",16.494167,4.389484828077117,3.5263605246161616
Builder,0,0,2,BHK,1184.090909,1,0,"Vadavalli,Coimbatore",11.026678,4.342552468404072,3.9531649487593215
Owner,0,0,2,BHK,1100.0,1,1,"Kumarpur,Asansol",23.694909,4.4652116002799,3.091042453358316
Dealer,0,0,3,BHK,1640.28777,1,1,"Govind Puram,Ghaziabad",28.66667,4.349202132082888,4.04305126783455
Owner,0,0,2,BHK,715.0518413,1,1,"Indira Gandhi Nagar,Jaipur",26.88,4.328173487710289,2.995732273553991
Owner,0,0,1,BHK,564.2633228999998,1,1,"Sanganer,Jaipur",26.773189,4.325613810459954,2.1972245773362196
Owner,0,0,3,BHK,1500.375094,1,1,"Katara Hills,Bhopal",23.185756,4.350258129711538,3.6888794541139363
Owner,0,0,1,BHK,750.1875468999998,1,1,"Panch batti,Bharuch",21.7,4.290002761543667,2.995732273553991
Dealer,1,1,2,BHK,515.6445557,0,0,"Sector 78 Faridabad,Faridabad",28.38016,4.348598281367018,3.0252910757955354
Dealer,0,0,2,BHK,1037.79296,1,1,"Sector 11 Belapur,Lalitpur",28.59863,4.348132914864083,4.787491742782046
Dealer,0,1,2,BHK,574.0393627000002,1,1,"Sector 86 Faridabad,Faridabad",28.406388,4.348244748251822,3.1986731175506815
Builder,0,0,2,BHK,1179.813594,1,0,"Vijaynagar,Mysore",12.327102,4.338420050634484,3.949318790171843
Dealer,0,0,2,BHK,1147.028154,1,1,"E M Bypass,Kolkata",22.54111,4.481167875673758,4.007333185232471
Dealer,0,1,3,BHK,1353.236607,1,1,"Sector-134 Noida,Noida",28.5041,4.348748470548351,3.8815637979434374
Dealer,1,1,3,BHK,1688.235294,0,1,"Pahala,Bhubaneswar",20.26444,4.452345992655154,4.050044303325521
Owner,0,1,3,BHK,1900.538486,1,1,"Lahargird,Jhansi",25.44862,4.363985110724463,4.0943445622221
Dealer,1,0,2,BHK,819.1747573,0,1,"Ondiputhur,Coimbatore",11.0,4.343372471001131,3.295836866004329
Owner,0,0,1,BHK,600.0,1,1,"Siolim,Goa",15.62,4.300911477131509,3.4965075614664802
Dealer,0,0,2,BHK,1199.878493,1,1,"Kudlu Gate,Bangalore",12.88784,4.352264748437179,4.3694478524670215
Dealer,0,1,2,BHK,1079.8303119999996,1,1,"Sector-78 Noida,Noida",28.560719,4.348808573503271,4.02535169073515
Owner,1,1,3,BHK,1650.165017,0,1,"Sector-118 Noida,Noida",28.579845,4.349034492635739,4.248495242049359
Dealer,0,0,2,BHK,1150.054765,1,1,"Ahinsa Khand 1,Ghaziabad",28.9196,4.342469464925427,4.143134726391533
Dealer,0,0,2,BHK,1042.5587369999996,1,1,"Hiranandani Gardens - Powai,Lalitpur",19.124896,4.288999512957956,5.634789603169249
Dealer,0,0,3,BHK,2040.370977,1,1,"Sector 82 Faridabad,Faridabad",28.394375,4.348434005104439,4.314817884980432
Owner,0,0,2,BHK,796.5686275,1,1,"Fatorda,Margao",15.292135,4.303553158133716,3.258096538021482
Dealer,0,0,2,BHK,1080.050826,1,1,"Palaspa,Lalitpur",24.69028,4.362064842211599,4.219507705176107
Owner,1,0,2,BHK,966.8508287,0,1,"bannanje,Udupi",13.33222,4.3140971707828815,3.5553480614894135
Builder,0,0,3,BHK,1600.0,1,0,"Poranki,Vijayawada",16.47431,4.390897298738148,4.133565275375382
Dealer,0,0,2,BHK,820.0168209,1,1,"Diva East,Maharashtra",19.186352,4.291101604780198,3.6635616461296463
Dealer,0,1,2,BHK,1133.093525,1,1,"Sector-100 Noida,Noida",28.542768,4.3485439952422125,4.143134726391533
Dealer,0,1,2,BHK,1109.960041,1,1,"Old Panvel,Lalitpur",18.988165,4.291924723262406,4.31748811353631
Dealer,0,0,1,BHK,620.048226,1,1,"Puttaparthi,Anantapur",14.166198,4.354282218188558,2.8903717578961645
Dealer,1,1,2,BHK,345.276221,0,0,"Ravet,Pune",18.651598,4.300483660496476,3.5409593240373143
Owner,0,0,3,BHK,1850.15989,1,1,"Vesu,Surat",21.143354,4.287316576010838,4.394449154672439
Dealer,1,0,3,BHK,1390.268123,0,1,"Sri Nagar,Visakhapatnam",17.677857999999997,4.421119286743077,3.332204510175204
Owner,0,1,2,BHK,1090.074584,1,1,"Vajarahalli,Bangalore",12.864738,4.350890509988082,4.330733340286331
Dealer,0,0,3,BHK,1549.358123,1,1,"Jagatpura,Jaipur",26.832353,4.3286489193897095,3.5553480614894135
Dealer,1,1,2,BHK,993.1122858,0,1,"Keshav Nagar,Pune",27.16726,4.326903713987911,4.127134385045092
Dealer,0,0,3,BHK,1265.1413189999996,1,1,"Sector-137 Noida,Noida",28.506454,4.349110390526719,3.8501476017100584
Dealer,0,0,2,BHK,925.1003121,1,1,"Mira Road,Maharashtra",19.283359,4.288607919921172,4.418840607796598
Dealer,1,1,3,BHK,1467.13615,0,1,"Sarjapur Road,Bangalore",12.86,4.353961466405538,4.605170185988092
Owner,0,0,2,BHK,1178.20324,1,1,"Ramachandra Rao Pet,Eluru",23.329544,4.446354625839073,3.871201010907891
Dealer,1,0,1,BHK,580.6288032000001,0,1,"Nalasopara (West),Lalitpur",24.69028,4.362064842211599,3.131136910560194
Dealer,1,1,1,BHK,416.6666667,0,0,"Kolshet Road,Lalitpur",24.69028,4.362064842211599,4.144720769547168
Dealer,0,0,1,BHK,650.0,1,1,"Nallasopara,Lalitpur",24.69028,4.362064842211599,3.481240089335692
Owner,0,0,3,BHK,1614.639397,1,1,"Mormugao,Goa",15.376029,4.3027282946816365,4.0943445622221
Dealer,1,0,1,BHK,418.9373297,0,1,"Dombivli (East),Maharashtra",19.2167,4.291599886483737,3.6082115510464816
Owner,0,1,2,BHK,1232.006225,1,1,"Elus Road Hanumanthappa Layout Kyalasanahalli,Bangalore",13.061162,4.352302079946153,4.553876891600541
Builder,1,1,2,BHK,711.4854073,0,0,"Punawale,Lalitpur",24.69028,4.362064842211599,3.8918202981106265
Dealer,0,0,1,BHK,600.0,1,1,"BHAIROPUR,Bhopal",23.15292,4.350012094574892,3.58351893845611
Dealer,0,1,4,BHK,2400.0,1,1,"Pholriwal,Jalandhar",31.261414,4.325323959616295,4.23410650459726
Dealer,0,0,2,BHK,1215.132693,1,1,"Sargasan,Gandhinagar",23.182972,4.285123104911434,3.762129915853529
Owner,0,0,3,BHK,1200.171453,1,1,"Model Town,Bhilai",30.885469,4.32868193496092,3.332204510175204
Dealer,0,1,2,BHK,1017.604559,1,1,"Mira Road East,Maharashtra",19.2836,4.288642723422474,4.605170185988092
Owner,0,0,2,BHK,893.4869504000002,1,1,"Perumbakkam,Chennai",12.9053,4.384506058361002,3.6375861597263857
Dealer,0,0,2,BHK,1079.754601,1,1,"Patturaickal,Thrissur",10.52,4.333492687678026,3.784189633918261
Dealer,0,0,3,BHK,1200.0,1,1,"Ahinsa Khand 2,Ghaziabad",28.9196,4.342469464925427,4.31748811353631
Dealer,0,0,4,BHK,2200.4889980000007,1,1,"Adajan,Surat",24.395822,4.369316540048455,4.499809670330265
Owner,0,0,4,BHK,2100.375857,1,1,"Indirapuram,Ghaziabad",28.63676,4.3485105690337384,4.553876891600541
Owner,0,0,1,BHK,550.1222494,1,1,"Doddathoguru,Bangalore",12.843566,4.352238696682746,2.8903717578961645
Owner,0,0,3,BHK,1635.244325,1,1,"Muneshwara Nagar,Bangalore",12.976477,4.349994967295074,4.442651256490317
Dealer,0,0,1,BHK,537.0462456,1,1,"Kothrud,Pune",18.5101,4.301549770267949,3.9889840465642745
Dealer,0,0,1,BHK,650.0742942,1,1,"Sector-52 Chandigarh,Chandigarh",30.712635,4.340401179444665,3.5553480614894135
